{"type":"FeatureCollection","features":[{"type":"Feature","geometry":{"type":"Point","coordinates":[-118.417401,34.000623]},"properties":{"address":"11605 Washington Blvd","unit":"d","beds":1,"baths":1.0,"built":1954,"rent":2395.0,"rentdate":"2023/02/06","encumbered":"No","status":"Rented","slug":"11605-washington-blvd","owner":"Tominage, Kimberly","email":"","section":"No","sfr_exempt":false,"perc_increase":0.06444444444444444,"date_problem":false,"unit_problem":false,"address_problem":false,"registered":true,"multiple_owners":true}},{"type":"Feature","geometry":{"type":"Point","coordinates":[-118.417401,34.000623]},"properties":{"address":"11605 Washington Blvd","unit":"c","beds":2,"baths":1.0,"built":1954,"rent":2650.0,"rentdate":"2023/02/06","encumbered":"No","status":"Rented","slug":"11605-washington-blvd","owner":"Tominaga, Kimberly","email":"meadowlarkmgmt@gmail.com","section":"No","sfr_exempt":false,"perc_increase":0.06,"date_problem":false,"unit_problem":false,"address_problem":false,"registered":true,"multiple_owners":true}},{"type":"Feature","geometry":{"type":"Point","coordinates":[-118.417401,34.000623]},"properties":{"address":"11605 Washington Blvd","unit":"b","beds":1,"baths":1.0,"built":1954,"rent":2545.0,"rentdate":"2023/02/06","encumbered":"No","status":"Rented","slug":"11605-washington-blvd","owner":"Tominaga, Kimberly","email":"meadowlarkmgmt@gmail.com","section":"No","sfr_exempt":false,"perc_increase":-0.00196078431372549,"date_problem":false,"unit_problem":false,"address_problem":false,"registered":true,"multiple_owners":true}},{"type":"Feature","geometry":{"type":"Point","coordinates":[-118.417401,34.000623]},"properties":{"address":"11605 Washington Blvd","unit":"a","beds":2,"baths":1.0,"built":1954,"rent":2605.0,"rentdate":"2023/02/06","encumbered":"No","status":"Rented","slug":"11605-washington-blvd","owner":"Tominage, Kimberly","email":"","section":"No","sfr_exempt":false,"perc_increase":0.06326530612244897,"date_problem":false,"unit_problem":false,"address_problem":false,"registered":true,"multiple_owners":true}},{"type":"Feature","geometry":{"type":"Point","coordinates":[-118.380003,33.988675]},"properties":{"address":"5634 Canterbury Dr","unit":"5634","beds":2,"baths":2.5,"built":1984,"rent":4500.0,"rentdate":"2023/02/04","encumbered":"No","status":"Vacant","slug":"5634-canterbury-dr","owner":"Sampson, Stephen","email":"","section":"No","sfr_exempt":true,"perc_increase":null,"date_problem":false,"unit_problem":false,"address_problem":false,"registered":true,"multiple_owners":false}},{"type":"Feature","geometry":{"type":"Point","coordinates":[-118.407382,34.008456]},"properties":{"address":"11003 Culver Blvd","unit":"11007","beds":2,"baths":2.0,"built":1954,"rent":1700.0,"rentdate":"2023/02/02","encumbered":"No","status":"Rented","slug":"11003-culver-blvd","owner":"Henderson, Sandra A","email":"","section":"No","sfr_exempt":false,"perc_increase":0.0625,"date_problem":false,"unit_problem":false,"address_problem":false,"registered":true,"multiple_owners":false}},{"type":"Feature","geometry":{"type":"Point","coordinates":[-118.411556,34.008371]},"properties":{"address":"4116 Center St","unit":"1","beds":3,"baths":2.0,"built":1950,"rent":2500.0,"rentdate":"2023/02/02","encumbered":"No","status":"Rented","slug":"4116-center-st","owner":"Yourgas, Michael G","email":"ritchiewilliams13@hotmail.com","section":"No","sfr_exempt":true,"perc_increase":-0.375,"date_problem":false,"unit_problem":false,"address_problem":false,"registered":true,"multiple_owners":false}},{"type":"Feature","geometry":{"type":"Point","coordinates":[-118.404205,33.992386]},"properties":{"address":"5195 Dawes Ave","unit":"1","beds":3,"baths":1.0,"built":1951,"rent":4900.0,"rentdate":"2023/02/02","encumbered":"No","status":"Rented","slug":"5195-dawes-ave","owner":"Kwasnicki, Kelly","email":"kellykwasnicki@yahoo.com","section":"No","sfr_exempt":true,"perc_increase":null,"date_problem":false,"unit_problem":false,"address_problem":false,"registered":true,"multiple_owners":false}},{"type":"Feature","geometry":{"type":"Point","coordinates":[-118.390507,34.021122]},"properties":{"address":"4069 Van Buren Pl","unit":"4073","beds":1,"baths":1.0,"built":1949,"rent":2163.0,"rentdate":"2023/02/02","encumbered":"No","status":"Rented","slug":"4069-van-buren-pl","owner":"Enterprises, Coruna Investment","email":"","section":"No","sfr_exempt":false,"perc_increase":0.0,"date_problem":false,"unit_problem":false,"address_problem":false,"registered":true,"multiple_owners":false}},{"type":"Feature","geometry":{"type":"Point","coordinates":[-118.390507,34.021122]},"properties":{"address":"4069 Van Buren Pl","unit":"4071","beds":1,"baths":1.0,"built":1949,"rent":1699.5,"rentdate":"2023/02/02","encumbered":"No","status":"Rented","slug":"4069-van-buren-pl","owner":"Enterprises, Coruna Investment","email":"","section":"No","sfr_exempt":false,"perc_increase":0.0,"date_problem":false,"unit_problem":false,"address_problem":false,"registered":true,"multiple_owners":false}},{"type":"Feature","geometry":{"type":"Point","coordinates":[-118.407382,34.008456]},"properties":{"address":"11003 Culver Blvd","unit":"11005","beds":1,"baths":1.0,"built":1954,"rent":1600.0,"rentdate":"2023/02/02","encumbered":"No","status":"Rented","slug":"11003-culver-blvd","owner":"Henderson, Sandra A","email":"","section":"No","sfr_exempt":false,"perc_increase":0.0,"date_problem":false,"unit_problem":false,"address_problem":false,"registered":true,"multiple_owners":false}},{"type":"Feature","geometry":{"type":"Point","coordinates":[-118.407382,34.008456]},"properties":{"address":"11003 Culver Blvd","unit":"11003","beds":1,"baths":1.0,"built":1954,"rent":0.0,"rentdate":"2023/02/02","encumbered":"No","status":"Vacant","slug":"11003-culver-blvd","owner":"Henderson, Sandra A","email":"","section":"No","sfr_exempt":false,"perc_increase":null,"date_problem":false,"unit_problem":false,"address_problem":false,"registered":true,"multiple_owners":false}},{"type":"Feature","geometry":{"type":"Point","coordinates":[-118.390507,34.021122]},"properties":{"address":"4069 Van Buren Pl","unit":"4069","beds":1,"baths":1.0,"built":1949,"rent":1596.5,"rentdate":"2023/02/02","encumbered":"No","status":"Rented","slug":"4069-van-buren-pl","owner":"Enterprises, Coruna Investment","email":"","section":"No","sfr_exempt":false,"perc_increase":0.0,"date_problem":false,"unit_problem":false,"address_problem":false,"registered":true,"multiple_owners":false}},{"type":"Feature","geometry":{"type":"Point","coordinates":[-118.393633,34.016698]},"properties":{"address":"4174 La Salle Ave","unit":"2","beds":3,"baths":2.0,"built":1977,"rent":4017.0,"rentdate":"2023/01/31","encumbered":"No","status":"Rented","slug":"4174-la-salle-ave","owner":"4174 Lasalle, Llc","email":"loribc2@gmail.com","section":"No","sfr_exempt":false,"perc_increase":0.0,"date_problem":false,"unit_problem":false,"address_problem":true,"registered":true,"multiple_owners":false}},{"type":"Feature","geometry":{"type":"Point","coordinates":[-118.40635,34.008569]},"properties":{"address":"10982 Culver Blvd","unit":"10986","beds":2,"baths":1.0,"built":1951,"rent":3000.0,"rentdate":"2023/01/31","encumbered":"No","status":"Rented","slug":"10982-culver-blvd","owner":"Rees Iii, John D","email":"john.rees.iii@gmail.com","section":"No","sfr_exempt":false,"perc_increase":-0.012508229098090849,"date_problem":false,"unit_problem":false,"address_problem":false,"registered":true,"multiple_owners":true}},{"type":"Feature","geometry":{"type":"Point","coordinates":[-118.40635,34.008569]},"properties":{"address":"10982 Culver Blvd","unit":"10982","beds":1,"baths":1.0,"built":1951,"rent":2250.0,"rentdate":"2023/01/31","encumbered":"No","status":"Rented","slug":"10982-culver-blvd","owner":"Rees Iii, John D","email":"john.rees.iii@gmail.com","section":"No","sfr_exempt":false,"perc_increase":null,"date_problem":false,"unit_problem":false,"address_problem":false,"registered":true,"multiple_owners":true}},{"type":"Feature","geometry":{"type":"Point","coordinates":[-118.393633,34.016698]},"properties":{"address":"4174 La Salle Ave","unit":"1","beds":3,"baths":2.0,"built":1977,"rent":4800.0,"rentdate":"2023/01/31","encumbered":"No","status":"Rented","slug":"4174-la-salle-ave","owner":"4174 Lasalle, Llc","email":"loribc2@gmail.com","section":"No","sfr_exempt":false,"perc_increase":0.08769544527532291,"date_problem":true,"unit_problem":true,"address_problem":true,"registered":true,"multiple_owners":false}},{"type":"Feature","geometry":{"type":"Point","coordinates":[-118.39528,34.016351]},"properties":{"address":"4140 Baldwin Ave","unit":"b","beds":2,"baths":2.0,"built":1964,"rent":4500.0,"rentdate":"2023/01/27","encumbered":"No","status":"Rented","slug":"4140-baldwin-ave","owner":"Bratt, Mark D","email":"markbratt5@hotmail.com","section":"No","sfr_exempt":true,"perc_increase":null,"date_problem":false,"unit_problem":false,"address_problem":false,"registered":true,"multiple_owners":false}},{"type":"Feature","geometry":{"type":"Point","coordinates":[-118.391526,34.015616]},"properties":{"address":"4254 La Salle Ave","unit":"4256","beds":3,"baths":1.0,"built":1957,"rent":1275.0,"rentdate":"2023/01/26","encumbered":"No","status":"Rented","slug":"4254-la-salle-ave","owner":"Hunter, Garrett","email":"garrettehunter@gmail.com","section":"No","sfr_exempt":false,"perc_increase":0.0,"date_problem":false,"unit_problem":false,"address_problem":false,"registered":true,"multiple_owners":false}},{"type":"Feature","geometry":{"type":"Point","coordinates":[-118.390836,34.018975]},"properties":{"address":"4209 Lafayette Pl","unit":"4209","beds":2,"baths":1.0,"built":1957,"rent":2995.0,"rentdate":"2023/01/21","encumbered":"No","status":"Rented","slug":"4209-lafayette-pl","owner":"Karchin, Jef","email":"jef@karchin.com","section":"No","sfr_exempt":false,"perc_increase":0.0,"date_problem":false,"unit_problem":true,"address_problem":true,"registered":true,"multiple_owners":false}},{"type":"Feature","geometry":{"type":"Point","coordinates":[-118.384352,34.024499]},"properties":{"address":"3603 Helms Ave","unit":"3603a","beds":1,"baths":1.0,"built":2022,"rent":2750.0,"rentdate":"2023/01/20","encumbered":"No","status":"Rented","slug":"3603-helms-ave","owner":"Facher , Marylou","email":"maryloufacher@verizon.net","section":"No","sfr_exempt":false,"perc_increase":null,"date_problem":false,"unit_problem":false,"address_problem":false,"registered":true,"multiple_owners":false}},{"type":"Feature","geometry":{"type":"Point","coordinates":[-118.386103,33.98221]},"properties":{"address":"5625 Green Valley Cir","unit":"108","beds":2,"baths":2.0,"built":1969,"rent":3195.0,"rentdate":"2023/01/20","encumbered":"No","status":"Rented","slug":"5625-green-valley-cir","owner":"Fang, Guan Cheng","email":"cyrilfdd@gmail.com","section":"No","sfr_exempt":true,"perc_increase":null,"date_problem":false,"unit_problem":false,"address_problem":false,"registered":true,"multiple_owners":true}},{"type":"Feature","geometry":{"type":"Point","coordinates":[-118.390656,34.003236]},"properties":{"address":"5124 Maytime Ln","unit":"5124","beds":2,"baths":2.0,"built":1978,"rent":3399.0,"rentdate":"2023/01/19","encumbered":"No","status":"Rented","slug":"5124-maytime-ln","owner":"Polinger, Melanie S","email":"melaniepolinger@gmail.com","section":"No","sfr_exempt":true,"perc_increase":null,"date_problem":false,"unit_problem":false,"address_problem":false,"registered":true,"multiple_owners":false}},{"type":"Feature","geometry":{"type":"Point","coordinates":[-118.396152,34.020199]},"properties":{"address":"4024 Lincoln Ave","unit":"4028","beds":2,"baths":1.0,"built":1940,"rent":1900.0,"rentdate":"2023/01/18","encumbered":"No","status":"Rented","slug":"4024-lincoln-ave","owner":"Kaufman, Trustee, Scott","email":"dana@srkproperties.com","section":"No","sfr_exempt":false,"perc_increase":0.0,"date_problem":false,"unit_problem":false,"address_problem":false,"registered":true,"multiple_owners":false}},{"type":"Feature","geometry":{"type":"Point","coordinates":[-118.396152,34.020199]},"properties":{"address":"4024 Lincoln Ave","unit":"4024","beds":1,"baths":1.0,"built":1940,"rent":1100.0,"rentdate":"2023/01/18","encumbered":"No","status":"Rented","slug":"4024-lincoln-ave","owner":"Kaufman, Trustee, Scott","email":"dana@srkproperties.com","section":"No","sfr_exempt":false,"perc_increase":0.0,"date_problem":false,"unit_problem":false,"address_problem":false,"registered":true,"multiple_owners":false}},{"type":"Feature","geometry":{"type":"Point","coordinates":[-118.396152,34.020199]},"properties":{"address":"4024 Lincoln Ave","unit":"4026","beds":1,"baths":1.0,"built":1940,"rent":1188.0,"rentdate":"2023/01/18","encumbered":"No","status":"Rented","slug":"4024-lincoln-ave","owner":"Kaufman, Trustee, Scott","email":"dana@srkproperties.com","section":"No","sfr_exempt":false,"perc_increase":0.0,"date_problem":false,"unit_problem":false,"address_problem":false,"registered":true,"multiple_owners":false}},{"type":"Feature","geometry":{"type":"Point","coordinates":[-118.419352,34.01069]},"properties":{"address":"3823 Sawtelle Blvd.","unit":"3825","beds":2,"baths":1.0,"built":1952,"rent":2800.0,"rentdate":"2023/01/14","encumbered":"No","status":"Rented","slug":"3823-sawtelle-blvd","owner":"Chang, Victoria","email":"changvictoria@gmail.com","section":"No","sfr_exempt":false,"perc_increase":0.05660377358490566,"date_problem":true,"unit_problem":true,"address_problem":true,"registered":true,"multiple_owners":false}},{"type":"Feature","geometry":{"type":"Point","coordinates":[-118.419352,34.01069]},"properties":{"address":"3823 Sawtelle Blvd.","unit":"3823","beds":1,"baths":1.0,"built":1952,"rent":2000.0,"rentdate":"2023/01/14","encumbered":"No","status":"Rented","slug":"3823-sawtelle-blvd","owner":"Chang, Victoria","email":"changvictoria@gmail.com","section":"No","sfr_exempt":false,"perc_increase":0.055408970976253295,"date_problem":false,"unit_problem":false,"address_problem":true,"registered":true,"multiple_owners":false}},{"type":"Feature","geometry":{"type":"Point","coordinates":[-118.419352,34.01069]},"properties":{"address":"3823 Sawtelle Blvd.","unit":"3825-5","beds":2,"baths":1.0,"built":1952,"rent":2415.0,"rentdate":"2023/01/14","encumbered":"No","status":"Rented","slug":"3823-sawtelle-blvd","owner":"Chang, Victoria","email":"changvictoria@gmail.com","section":"No","sfr_exempt":false,"perc_increase":0.05,"date_problem":false,"unit_problem":false,"address_problem":true,"registered":true,"multiple_owners":false}},{"type":"Feature","geometry":{"type":"Point","coordinates":[-118.419352,34.01069]},"properties":{"address":"3823 Sawtelle Blvd.","unit":"3823-5","beds":1,"baths":1.0,"built":1952,"rent":1960.0,"rentdate":"2023/01/14","encumbered":"No","status":"Rented","slug":"3823-sawtelle-blvd","owner":"Chang, Victoria","email":"changvictoria@gmail.com","section":"No","sfr_exempt":false,"perc_increase":0.04533333333333334,"date_problem":false,"unit_problem":false,"address_problem":true,"registered":true,"multiple_owners":false}},{"type":"Feature","geometry":{"type":"Point","coordinates":[-118.383225,33.984788]},"properties":{"address":"5651 Sumner Way","unit":"303","beds":1,"baths":1.0,"built":1968,"rent":2795.0,"rentdate":"2023/01/13","encumbered":"No","status":"Rented","slug":"5651-sumner-way","owner":"Ramos, Elfrida","email":"fridarh@gmail.com","section":"No","sfr_exempt":true,"perc_increase":null,"date_problem":false,"unit_problem":false,"address_problem":false,"registered":true,"multiple_owners":true}},{"type":"Feature","geometry":{"type":"Point","coordinates":[-118.390782,34.00608]},"properties":{"address":"4919 Indian Wood Rd","unit":"397","beds":2,"baths":1.0,"built":1973,"rent":2795.0,"rentdate":"2023/01/13","encumbered":"No","status":"Vacant","slug":"4919-indian-wood-rd","owner":"Grumber, Ora H","email":"","section":"No","sfr_exempt":true,"perc_increase":null,"date_problem":false,"unit_problem":false,"address_problem":false,"registered":true,"multiple_owners":true}},{"type":"Feature","geometry":{"type":"Point","coordinates":[-118.39072,34.006863]},"properties":{"address":"4824 Hollow Corner Rd","unit":"260","beds":3,"baths":2.0,"built":1973,"rent":3495.0,"rentdate":"2023/01/13","encumbered":"No","status":"Rented","slug":"4824-hollow-corner-rd","owner":"Grumberg, Jean P","email":"","section":"No","sfr_exempt":true,"perc_increase":0.0,"date_problem":false,"unit_problem":false,"address_problem":false,"registered":true,"multiple_owners":false}},{"type":"Feature","geometry":{"type":"Point","coordinates":[-118.383918,34.025538]},"properties":{"address":"3563 Helms Ave","unit":"1","beds":3,"baths":2.5,"built":1964,"rent":4150.0,"rentdate":"2023/01/11","encumbered":"No","status":"Rented","slug":"3563-helms-ave","owner":"3563 Helms, Llc","email":"loribc2@gmail.com","section":"No","sfr_exempt":false,"perc_increase":0.0375,"date_problem":false,"unit_problem":true,"address_problem":true,"registered":true,"multiple_owners":false}},{"type":"Feature","geometry":{"type":"Point","coordinates":[-118.391658,33.989407]},"properties":{"address":"8007 Hannum Ave","unit":"8007","beds":2,"baths":2.5,"built":1998,"rent":4300.0,"rentdate":"2023/01/11","encumbered":"No","status":"Rented","slug":"8007-hannum-ave","owner":"Deavens, Edna Renee","email":"deavense@bellsouth.net","section":"No","sfr_exempt":true,"perc_increase":0.20279720279720279,"date_problem":false,"unit_problem":false,"address_problem":false,"registered":true,"multiple_owners":false}},{"type":"Feature","geometry":{"type":"Point","coordinates":[-118.383918,34.025538]},"properties":{"address":"3563 Helms Ave","unit":"2","beds":3,"baths":2.0,"built":1964,"rent":3750.0,"rentdate":"2023/01/11","encumbered":"No","status":"Rented","slug":"3563-helms-ave","owner":"3563 Helms, Llc","email":"loribc2@gmail.com","section":"No","sfr_exempt":false,"perc_increase":0.04983202687569989,"date_problem":false,"unit_problem":false,"address_problem":true,"registered":true,"multiple_owners":false}},{"type":"Feature","geometry":{"type":"Point","coordinates":[-118.409863,34.016097]},"properties":{"address":"3827 Spad Pl","unit":"1","beds":2,"baths":1.0,"built":1947,"rent":2950.0,"rentdate":"2023/01/10","encumbered":"No","status":"Rented","slug":"3827-spad-pl","owner":"Fitzpatrick, John K","email":"","section":"No","sfr_exempt":true,"perc_increase":0.0,"date_problem":false,"unit_problem":false,"address_problem":false,"registered":true,"multiple_owners":false}},{"type":"Feature","geometry":{"type":"Point","coordinates":[-118.392955,34.017921]},"properties":{"address":"4171 Lincoln Ave","unit":"4173-5","beds":2,"baths":1.0,"built":1923,"rent":2000.0,"rentdate":"2023/01/10","encumbered":"No","status":"Rented","slug":"4171-lincoln-ave","owner":"Brown, Nancie","email":"nancie@nanciebrown.com","section":"No","sfr_exempt":false,"perc_increase":0.0,"date_problem":false,"unit_problem":false,"address_problem":false,"registered":true,"multiple_owners":false}},{"type":"Feature","geometry":{"type":"Point","coordinates":[-118.392955,34.017921]},"properties":{"address":"4171 Lincoln Ave","unit":"4173","beds":2,"baths":1.0,"built":1923,"rent":2700.0,"rentdate":"2023/01/10","encumbered":"No","status":"Rented","slug":"4171-lincoln-ave","owner":"Brown, Nancie","email":"nancie@nanciebrown.com","section":"No","sfr_exempt":false,"perc_increase":0.0,"date_problem":false,"unit_problem":false,"address_problem":false,"registered":true,"multiple_owners":false}},{"type":"Feature","geometry":{"type":"Point","coordinates":[-118.392955,34.017921]},"properties":{"address":"4171 Lincoln Ave","unit":"4171","beds":1,"baths":1.0,"built":1923,"rent":2900.0,"rentdate":"2023/01/10","encumbered":"No","status":"Rented","slug":"4171-lincoln-ave","owner":"Brown, Nancie","email":"nancie@nanciebrown.com","section":"No","sfr_exempt":false,"perc_increase":0.0,"date_problem":false,"unit_problem":false,"address_problem":false,"registered":true,"multiple_owners":false}},{"type":"Feature","geometry":{"type":"Point","coordinates":[-118.416891,34.006681]},"properties":{"address":"11320 Washington Pl","unit":"b","beds":2,"baths":1.0,"built":1950,"rent":2595.0,"rentdate":"2023/01/09","encumbered":"No","status":"Rented","slug":"11320-washington-pl","owner":"England John H And Carol A Trust John And Carol En","email":"","section":"No","sfr_exempt":false,"perc_increase":0.14620141342756185,"date_problem":true,"unit_problem":true,"address_problem":true,"registered":true,"multiple_owners":false}},{"type":"Feature","geometry":{"type":"Point","coordinates":[-118.416891,34.006681]},"properties":{"address":"11320 Washington Pl","unit":"a","beds":2,"baths":1.0,"built":1950,"rent":1493.5,"rentdate":"2023/01/09","encumbered":"No","status":"Rented","slug":"11320-washington-pl","owner":"England John H And Carol A Trust John And Carol En","email":"","section":"No","sfr_exempt":false,"perc_increase":0.0,"date_problem":false,"unit_problem":false,"address_problem":true,"registered":true,"multiple_owners":false}},{"type":"Feature","geometry":{"type":"Point","coordinates":[-118.416891,34.006681]},"properties":{"address":"11320 Washington Pl","unit":"d","beds":2,"baths":1.0,"built":1950,"rent":2295.0,"rentdate":"2023/01/09","encumbered":"No","status":"Rented","slug":"11320-washington-pl","owner":"England John H And Carol A Trust John And Carol En","email":"","section":"No","sfr_exempt":false,"perc_increase":0.0,"date_problem":false,"unit_problem":false,"address_problem":true,"registered":true,"multiple_owners":false}},{"type":"Feature","geometry":{"type":"Point","coordinates":[-118.416891,34.006681]},"properties":{"address":"11320 Washington Pl","unit":"c","beds":2,"baths":1.0,"built":1950,"rent":2250.0,"rentdate":"2023/01/09","encumbered":"No","status":"Rented","slug":"11320-washington-pl","owner":"England John H And Carol A Trust John And Carol En","email":"","section":"No","sfr_exempt":false,"perc_increase":0.0,"date_problem":false,"unit_problem":false,"address_problem":true,"registered":true,"multiple_owners":false}},{"type":"Feature","geometry":{"type":"Point","coordinates":[-118.391411,34.007643]},"properties":{"address":"4804 Hollow Corner Rd","unit":"226","beds":2,"baths":2.0,"built":1973,"rent":2950.0,"rentdate":"2023/01/05","encumbered":"No","status":"Rented","slug":"4804-hollow-corner-rd","owner":"Profenius, Ella","email":"ella.lan16@gmail.com","section":"No","sfr_exempt":true,"perc_increase":0.05357142857142857,"date_problem":false,"unit_problem":false,"address_problem":false,"registered":true,"multiple_owners":true}},{"type":"Feature","geometry":{"type":"Point","coordinates":[-118.409563,34.00951]},"properties":{"address":"4075 Huron Ave","unit":"4077-huron","beds":3,"baths":2.0,"built":1957,"rent":4725.0,"rentdate":"2023/01/05","encumbered":"No","status":"Rented","slug":"4075-huron-ave","owner":"Sikder, Sadikur","email":"","section":"No","sfr_exempt":false,"perc_increase":null,"date_problem":false,"unit_problem":false,"address_problem":false,"registered":true,"multiple_owners":true}},{"type":"Feature","geometry":{"type":"Point","coordinates":[-118.394933,34.017371]},"properties":{"address":"4130 La Salle Ave","unit":"4132","beds":2,"baths":2.0,"built":1991,"rent":4550.0,"rentdate":"2023/01/04","encumbered":"No","status":"Rented","slug":"4130-la-salle-ave","owner":"Chu, Thomas S","email":"tchuster@gmail.com","section":"No","sfr_exempt":false,"perc_increase":0.625,"date_problem":false,"unit_problem":false,"address_problem":false,"registered":true,"multiple_owners":false}},{"type":"Feature","geometry":{"type":"Point","coordinates":[-118.383964,33.983801]},"properties":{"address":"6124 Buckingham Pkwy","unit":"408","beds":2,"baths":2.0,"built":1968,"rent":2600.0,"rentdate":"2023/01/03","encumbered":"No","status":"Rented","slug":"6124-buckingham-pkwy","owner":"Curry, Tracy","email":"latracy@hotmail.com","section":"No","sfr_exempt":true,"perc_increase":0.0,"date_problem":false,"unit_problem":false,"address_problem":false,"registered":true,"multiple_owners":true}},{"type":"Feature","geometry":{"type":"Point","coordinates":[-118.391818,34.0147]},"properties":{"address":"4264 Baldwin Ave","unit":"4266","beds":2,"baths":1.0,"built":1949,"rent":2415.0,"rentdate":"2022/12/29","encumbered":"No","status":"Rented","slug":"4264-baldwin-ave","owner":"Family Trust, The Joseph M Gerez","email":"","section":"No","sfr_exempt":false,"perc_increase":0.05,"date_problem":false,"unit_problem":false,"address_problem":false,"registered":true,"multiple_owners":false}},{"type":"Feature","geometry":{"type":"Point","coordinates":[-118.391818,34.0147]},"properties":{"address":"4264 Baldwin Ave","unit":"4264","beds":2,"baths":1.0,"built":1949,"rent":2940.0,"rentdate":"2022/12/29","encumbered":"No","status":"Rented","slug":"4264-baldwin-ave","owner":"Family Trust, The Joseph M Gerez","email":"","section":"No","sfr_exempt":false,"perc_increase":0.05,"date_problem":false,"unit_problem":false,"address_problem":false,"registered":true,"multiple_owners":false}},{"type":"Feature","geometry":{"type":"Point","coordinates":[-118.416922,34.000676]},"properties":{"address":"11529 Washington Blvd","unit":"11529","beds":2,"baths":1.0,"built":1953,"rent":2425.0,"rentdate":"2022/12/26","encumbered":"No","status":"Rented","slug":"11529-washington-blvd","owner":"Bhuta, Sunil","email":"","section":"No","sfr_exempt":false,"perc_increase":0.0,"date_problem":false,"unit_problem":false,"address_problem":false,"registered":true,"multiple_owners":false}},{"type":"Feature","geometry":{"type":"Point","coordinates":[-118.416922,34.000676]},"properties":{"address":"11529 Washington Blvd","unit":"11533","beds":2,"baths":1.0,"built":1953,"rent":2395.0,"rentdate":"2022/12/26","encumbered":"No","status":"Rented","slug":"11529-washington-blvd","owner":"Bhuta, Sunil","email":"","section":"No","sfr_exempt":false,"perc_increase":0.0,"date_problem":false,"unit_problem":false,"address_problem":false,"registered":true,"multiple_owners":false}},{"type":"Feature","geometry":{"type":"Point","coordinates":[-118.416922,34.000676]},"properties":{"address":"11529 Washington Blvd","unit":"11537","beds":2,"baths":1.0,"built":1953,"rent":1895.0,"rentdate":"2022/12/26","encumbered":"No","status":"Vacant","slug":"11529-washington-blvd","owner":"Bhuta, Sunil","email":"","section":"No","sfr_exempt":false,"perc_increase":0.0,"date_problem":false,"unit_problem":false,"address_problem":false,"registered":true,"multiple_owners":false}},{"type":"Feature","geometry":{"type":"Point","coordinates":[-118.416922,34.000676]},"properties":{"address":"11529 Washington Blvd","unit":"11535","beds":2,"baths":1.0,"built":1953,"rent":1980.0,"rentdate":"2022/12/26","encumbered":"No","status":"Rented","slug":"11529-washington-blvd","owner":"Bhuta, Sunil","email":"","section":"No","sfr_exempt":false,"perc_increase":0.044854881266490766,"date_problem":false,"unit_problem":false,"address_problem":false,"registered":true,"multiple_owners":false}},{"type":"Feature","geometry":{"type":"Point","coordinates":[-118.416922,34.000676]},"properties":{"address":"11529 Washington Blvd","unit":"11531","beds":2,"baths":1.0,"built":1953,"rent":1980.0,"rentdate":"2022/12/26","encumbered":"No","status":"Rented","slug":"11529-washington-blvd","owner":"Bhuta, Sunil","email":"","section":"No","sfr_exempt":false,"perc_increase":0.044854881266490766,"date_problem":false,"unit_problem":false,"address_problem":false,"registered":true,"multiple_owners":false}},{"type":"Feature","geometry":{"type":"Point","coordinates":[-118.41387,34.01275]},"properties":{"address":"3859 Tilden Ave","unit":"8","beds":2,"baths":1.0,"built":1956,"rent":1442.0,"rentdate":"2022/12/23","encumbered":"No","status":"Rented","slug":"3859-tilden-ave","owner":"Spander, Elizabeth","email":"","section":"No","sfr_exempt":false,"perc_increase":0.0,"date_problem":false,"unit_problem":false,"address_problem":false,"registered":true,"multiple_owners":false}},{"type":"Feature","geometry":{"type":"Point","coordinates":[-118.41387,34.01275]},"properties":{"address":"3859 Tilden Ave","unit":"1","beds":1,"baths":1.0,"built":1956,"rent":952.99,"rentdate":"2022/12/23","encumbered":"No","status":"Rented","slug":"3859-tilden-ave","owner":"Spander, Elizabeth","email":"","section":"No","sfr_exempt":false,"perc_increase":0.0,"date_problem":false,"unit_problem":false,"address_problem":false,"registered":true,"multiple_owners":false}},{"type":"Feature","geometry":{"type":"Point","coordinates":[-118.41387,34.01275]},"properties":{"address":"3859 Tilden Ave","unit":"7","beds":2,"baths":1.0,"built":1956,"rent":1360.0,"rentdate":"2022/12/23","encumbered":"No","status":"Rented","slug":"3859-tilden-ave","owner":"Spander, Elizabeth","email":"","section":"No","sfr_exempt":false,"perc_increase":0.0,"date_problem":false,"unit_problem":false,"address_problem":false,"registered":true,"multiple_owners":false}},{"type":"Feature","geometry":{"type":"Point","coordinates":[-118.41387,34.01275]},"properties":{"address":"3859 Tilden Ave","unit":"6","beds":1,"baths":1.0,"built":1956,"rent":1236.0,"rentdate":"2022/12/23","encumbered":"No","status":"Rented","slug":"3859-tilden-ave","owner":"Spander, Elizabeth","email":"","section":"No","sfr_exempt":false,"perc_increase":0.0,"date_problem":false,"unit_problem":false,"address_problem":false,"registered":true,"multiple_owners":false}},{"type":"Feature","geometry":{"type":"Point","coordinates":[-118.41387,34.01275]},"properties":{"address":"3859 Tilden Ave","unit":"5","beds":1,"baths":1.0,"built":1956,"rent":1236.0,"rentdate":"2022/12/23","encumbered":"No","status":"Rented","slug":"3859-tilden-ave","owner":"Spander, Elizabeth","email":"","section":"No","sfr_exempt":false,"perc_increase":0.0,"date_problem":false,"unit_problem":false,"address_problem":false,"registered":true,"multiple_owners":false}},{"type":"Feature","geometry":{"type":"Point","coordinates":[-118.41387,34.01275]},"properties":{"address":"3859 Tilden Ave","unit":"2","beds":1,"baths":1.0,"built":1956,"rent":1236.0,"rentdate":"2022/12/23","encumbered":"No","status":"Rented","slug":"3859-tilden-ave","owner":"Spander, Elizabeth","email":"","section":"No","sfr_exempt":false,"perc_increase":0.0,"date_problem":false,"unit_problem":false,"address_problem":false,"registered":true,"multiple_owners":false}},{"type":"Feature","geometry":{"type":"Point","coordinates":[-118.41387,34.01275]},"properties":{"address":"3859 Tilden Ave","unit":"4","beds":1,"baths":1.0,"built":1956,"rent":1905.0,"rentdate":"2022/12/23","encumbered":"No","status":"Rented","slug":"3859-tilden-ave","owner":"Spander, Elizabeth","email":"","section":"No","sfr_exempt":false,"perc_increase":0.0,"date_problem":false,"unit_problem":false,"address_problem":false,"registered":true,"multiple_owners":false}},{"type":"Feature","geometry":{"type":"Point","coordinates":[-118.41387,34.01275]},"properties":{"address":"3859 Tilden Ave","unit":"3","beds":1,"baths":1.0,"built":1956,"rent":1850.0,"rentdate":"2022/12/23","encumbered":"No","status":"Rented","slug":"3859-tilden-ave","owner":"Spander, Elizabeth","email":"","section":"No","sfr_exempt":false,"perc_increase":0.0,"date_problem":false,"unit_problem":false,"address_problem":false,"registered":true,"multiple_owners":false}},{"type":"Feature","geometry":{"type":"Point","coordinates":[-118.390715,34.004125]},"properties":{"address":"13105 Summertime Ln","unit":"13105","beds":1,"baths":1.0,"built":1974,"rent":2475.0,"rentdate":"2022/12/22","encumbered":"No","status":"Rented","slug":"13105-summertime-ln","owner":"Nepomnaschy, Eric","email":"kellie@cbancorp.com","section":"No","sfr_exempt":true,"perc_increase":0.07608695652173914,"date_problem":false,"unit_problem":false,"address_problem":false,"registered":true,"multiple_owners":false}},{"type":"Feature","geometry":{"type":"Point","coordinates":[-118.398129,34.008821]},"properties":{"address":"4504 Emerald Way","unit":"1","beds":3,"baths":3.0,"built":1991,"rent":5350.0,"rentdate":"2022/12/15","encumbered":"No","status":"Rented","slug":"4504-emerald-way","owner":"Greenaway, Brendan","email":"","section":"No","sfr_exempt":true,"perc_increase":null,"date_problem":false,"unit_problem":false,"address_problem":false,"registered":true,"multiple_owners":false}},{"type":"Feature","geometry":{"type":"Point","coordinates":[-118.38382,34.026172]},"properties":{"address":"3541 Helms Ave","unit":"a","beds":1,"baths":1.0,"built":2019,"rent":2335.0,"rentdate":"2022/12/14","encumbered":"No","status":"Rented","slug":"3541-helms-ave","owner":"Eng, Dana","email":"erica@ericaeng.com","section":"No","sfr_exempt":true,"perc_increase":0.015217391304347827,"date_problem":false,"unit_problem":false,"address_problem":false,"registered":true,"multiple_owners":false}},{"type":"Feature","geometry":{"type":"Point","coordinates":[-118.407663,34.009425]},"properties":{"address":"10949 Aletta Ave","unit":"1","beds":1,"baths":1.0,"built":2015,"rent":2325.0,"rentdate":"2022/12/08","encumbered":"No","status":"Rented","slug":"10949-aletta-ave","owner":"Krowech, Gail","email":"gail.krowech@gmail.com","section":"No","sfr_exempt":false,"perc_increase":null,"date_problem":false,"unit_problem":false,"address_problem":false,"registered":true,"multiple_owners":false}},{"type":"Feature","geometry":{"type":"Point","coordinates":[-118.395657,34.018255]},"properties":{"address":"4077 Madison Ave","unit":"4079","beds":1,"baths":1.0,"built":1922,"rent":1650.0,"rentdate":"2022/11/30","encumbered":"No","status":"Rented","slug":"4077-madison-ave","owner":"Shahin, Madeha","email":"","section":"No","sfr_exempt":false,"perc_increase":-0.15384615384615385,"date_problem":false,"unit_problem":false,"address_problem":false,"registered":true,"multiple_owners":false}},{"type":"Feature","geometry":{"type":"Point","coordinates":[-118.385885,33.978718]},"properties":{"address":"6605 Green Valley Cir","unit":"201","beds":2,"baths":2.0,"built":1970,"rent":0.0,"rentdate":"2022/11/29","encumbered":"No","status":"Vacant","slug":"6605-green-valley-cir","owner":"Lanier, Laurette","email":"preciousmanagementgroup@gmail.com","section":"No","sfr_exempt":true,"perc_increase":-1.0,"date_problem":false,"unit_problem":false,"address_problem":false,"registered":true,"multiple_owners":true}},{"type":"Feature","geometry":{"type":"Point","coordinates":[-118.391496,34.005978]},"properties":{"address":"1311 Summertime Ln","unit":"1311","beds":1,"baths":2.0,"built":1973,"rent":3350.0,"rentdate":"2022/11/28","encumbered":"No","status":"Rented","slug":"1311-summertime-ln","owner":"Abdelmalak, Anthony  J","email":"","section":"No","sfr_exempt":true,"perc_increase":0.03076923076923077,"date_problem":false,"unit_problem":false,"address_problem":false,"registered":true,"multiple_owners":false}},{"type":"Feature","geometry":{"type":"Point","coordinates":[-118.392016,34.005125]},"properties":{"address":"11202 Summertime Ln","unit":"11202","beds":1,"baths":1.0,"built":1973,"rent":2400.0,"rentdate":"2022/11/28","encumbered":"No","status":"Rented","slug":"11202-summertime-ln","owner":"Pigott, Michael","email":"mike.pigott@gmail.com","section":"No","sfr_exempt":true,"perc_increase":0.0,"date_problem":false,"unit_problem":false,"address_problem":false,"registered":true,"multiple_owners":false}},{"type":"Feature","geometry":{"type":"Point","coordinates":[-118.391537,33.98967]},"properties":{"address":"7415 Hannum Ave","unit":"7415-hannu","beds":2,"baths":3.0,"built":1997,"rent":4068.0,"rentdate":"2022/11/21","encumbered":"No","status":"Rented","slug":"7415-hannum-ave","owner":"Smith James, Gwendolynn M","email":"","section":"No","sfr_exempt":true,"perc_increase":null,"date_problem":false,"unit_problem":false,"address_problem":false,"registered":true,"multiple_owners":false}},{"type":"Feature","geometry":{"type":"Point","coordinates":[-118.397575,34.017482]},"properties":{"address":"4051 Jackson Ave","unit":"4","beds":3,"baths":2.0,"built":1965,"rent":3000.0,"rentdate":"2022/11/11","encumbered":"No","status":"Rented","slug":"4051-jackson-ave","owner":"Salem, Rifaat","email":"1025salem@gmail.com","section":"No","sfr_exempt":false,"perc_increase":-0.03225806451612903,"date_problem":false,"unit_problem":false,"address_problem":false,"registered":true,"multiple_owners":false}},{"type":"Feature","geometry":{"type":"Point","coordinates":[-118.389276,33.982592]},"properties":{"address":"5845 Doverwood Dr","unit":"206","beds":2,"baths":2.0,"built":1970,"rent":2800.0,"rentdate":"2022/11/08","encumbered":"No","status":"Rented","slug":"5845-doverwood-dr","owner":"Neilson, Andrew S","email":"","section":"No","sfr_exempt":true,"perc_increase":0.0,"date_problem":false,"unit_problem":false,"address_problem":false,"registered":true,"multiple_owners":true}},{"type":"Feature","geometry":{"type":"Point","coordinates":[-118.432472,33.99295]},"properties":{"address":"4240 Mcconnell Blvd","unit":"4240","beds":2,"baths":1.0,"built":1938,"rent":3800.0,"rentdate":"2022/11/08","encumbered":"No","status":"Rented","slug":"4240-mcconnell-blvd","owner":"James, C.M.","email":"Calayus@gmail.com","section":"No","sfr_exempt":true,"perc_increase":0.0,"date_problem":false,"unit_problem":false,"address_problem":false,"registered":true,"multiple_owners":false}},{"type":"Feature","geometry":{"type":"Point","coordinates":[-118.397575,34.017482]},"properties":{"address":"4051 Jackson Ave","unit":"1","beds":2,"baths":2.0,"built":1965,"rent":1495.0,"rentdate":"2022/11/07","encumbered":"No","status":"Rented","slug":"4051-jackson-ave","owner":"Salem, Rifaat","email":"","section":"No","sfr_exempt":false,"perc_increase":0.0,"date_problem":false,"unit_problem":false,"address_problem":false,"registered":true,"multiple_owners":false}},{"type":"Feature","geometry":{"type":"Point","coordinates":[-118.397575,34.017482]},"properties":{"address":"4051 Jackson Ave","unit":"2","beds":2,"baths":2.0,"built":1965,"rent":1350.0,"rentdate":"2022/11/07","encumbered":"No","status":"Rented","slug":"4051-jackson-ave","owner":"Salem, Rifaat","email":"","section":"No","sfr_exempt":false,"perc_increase":0.0,"date_problem":false,"unit_problem":false,"address_problem":false,"registered":true,"multiple_owners":false}},{"type":"Feature","geometry":{"type":"Point","coordinates":[-118.403952,34.008559]},"properties":{"address":"4319 Elenda St","unit":"12269","beds":4,"baths":3.0,"built":1923,"rent":2000.0,"rentdate":"2022/11/04","encumbered":"No","status":"Rented","slug":"4319-elenda-st","owner":"Kang, Jungsoo","email":"jsk50@comcast.net","section":"No","sfr_exempt":false,"perc_increase":0.0,"date_problem":false,"unit_problem":false,"address_problem":false,"registered":true,"multiple_owners":false}},{"type":"Feature","geometry":{"type":"Point","coordinates":[-118.413825,34.014414]},"properties":{"address":"3813 Huron Ave","unit":"6","beds":2,"baths":1.75,"built":1971,"rent":1800.0,"rentdate":"2022/11/01","encumbered":"No","status":"Rented","slug":"3813-huron-ave","owner":"Deiongh, Dawn A","email":"hanunaga53@gmail.com","section":"No","sfr_exempt":true,"perc_increase":0.0,"date_problem":false,"unit_problem":false,"address_problem":false,"registered":true,"multiple_owners":true}},{"type":"Feature","geometry":{"type":"Point","coordinates":[-118.38601,33.980714]},"properties":{"address":"6345 Green Valley Cir","unit":"1","beds":3,"baths":2.0,"built":1974,"rent":2805.0,"rentdate":"2022/10/31","encumbered":"No","status":"Rented","slug":"6345-green-valley-cir","owner":"Joshi, Ramesh U","email":"alaap@hotmail.com","section":"No","sfr_exempt":true,"perc_increase":0.0,"date_problem":false,"unit_problem":false,"address_problem":false,"registered":true,"multiple_owners":false}},{"type":"Feature","geometry":{"type":"Point","coordinates":[-118.394452,34.018589]},"properties":{"address":"4121 Lincoln Ave","unit":"2","beds":2,"baths":2.0,"built":0,"rent":3500.0,"rentdate":"2022/10/31","encumbered":"No","status":"Rented","slug":"4121-lincoln-ave","owner":"Riva, Mary","email":"","section":"No","sfr_exempt":false,"perc_increase":0.0,"date_problem":false,"unit_problem":false,"address_problem":false,"registered":true,"multiple_owners":false}},{"type":"Feature","geometry":{"type":"Point","coordinates":[-118.394452,34.018589]},"properties":{"address":"4121 Lincoln Ave","unit":"1","beds":2,"baths":2.0,"built":1940,"rent":2605.0,"rentdate":"2022/10/31","encumbered":"No","status":"Rented","slug":"4121-lincoln-ave","owner":"Riva, Mary","email":"","section":"No","sfr_exempt":false,"perc_increase":0.0,"date_problem":false,"unit_problem":false,"address_problem":false,"registered":true,"multiple_owners":false}},{"type":"Feature","geometry":{"type":"Point","coordinates":[-118.415544,34.005293]},"properties":{"address":"4073 Sawtelle Blvd","unit":"4073","beds":2,"baths":1.0,"built":1949,"rent":1800.0,"rentdate":"2022/10/25","encumbered":"No","status":"Rented","slug":"4073-sawtelle-blvd","owner":"Branson, Kadijah S","email":"kadbrans@gmail.com","section":"No","sfr_exempt":false,"perc_increase":0.0,"date_problem":false,"unit_problem":false,"address_problem":false,"registered":true,"multiple_owners":false}},{"type":"Feature","geometry":{"type":"Point","coordinates":[-118.415544,34.005293]},"properties":{"address":"4073 Sawtelle Blvd","unit":"4077","beds":1,"baths":1.0,"built":1949,"rent":1450.0,"rentdate":"2022/10/25","encumbered":"No","status":"Rented","slug":"4073-sawtelle-blvd","owner":"Branson, Kadijah S","email":"kadbrans@gmail.com","section":"No","sfr_exempt":false,"perc_increase":-0.03333333333333333,"date_problem":false,"unit_problem":false,"address_problem":false,"registered":true,"multiple_owners":false}},{"type":"Feature","geometry":{"type":"Point","coordinates":[-118.415544,34.005293]},"properties":{"address":"4073 Sawtelle Blvd","unit":"4079","beds":1,"baths":1.0,"built":1949,"rent":1450.0,"rentdate":"2022/10/25","encumbered":"No","status":"Rented","slug":"4073-sawtelle-blvd","owner":"Branson, Kadijah S","email":"kadbrans@gmail.com","section":"No","sfr_exempt":false,"perc_increase":0.03571428571428571,"date_problem":false,"unit_problem":false,"address_problem":false,"registered":true,"multiple_owners":false}},{"type":"Feature","geometry":{"type":"Point","coordinates":[-118.415544,34.005293]},"properties":{"address":"4073 Sawtelle Blvd","unit":"4075","beds":2,"baths":1.0,"built":1949,"rent":1800.0,"rentdate":"2022/10/25","encumbered":"No","status":"Rented","slug":"4073-sawtelle-blvd","owner":"Branson, Kadijah S","email":"kadbrans@gmail.com","section":"No","sfr_exempt":false,"perc_increase":-0.02702702702702703,"date_problem":false,"unit_problem":false,"address_problem":false,"registered":true,"multiple_owners":false}},{"type":"Feature","geometry":{"type":"Point","coordinates":[-118.428807,33.999935]},"properties":{"address":"12224 Washington Blvd","unit":"12226","beds":3,"baths":1.0,"built":1960,"rent":2500.0,"rentdate":"2022/10/21","encumbered":"No","status":"Rented","slug":"12224-washington-blvd","owner":"Beal, Victoria","email":"victoriabeal@me.com","section":"No","sfr_exempt":false,"perc_increase":0.09649122807017543,"date_problem":true,"unit_problem":true,"address_problem":true,"registered":true,"multiple_owners":false}},{"type":"Feature","geometry":{"type":"Point","coordinates":[-118.428807,33.999935]},"properties":{"address":"12224 Washington Blvd","unit":"12224-5","beds":2,"baths":1.0,"built":1960,"rent":2600.0,"rentdate":"2022/10/21","encumbered":"No","status":"Rented","slug":"12224-washington-blvd","owner":"Beal, Victoria","email":"victoriabeal@me.com","section":"No","sfr_exempt":false,"perc_increase":0.3993541442411195,"date_problem":false,"unit_problem":false,"address_problem":true,"registered":true,"multiple_owners":false}},{"type":"Feature","geometry":{"type":"Point","coordinates":[-118.428807,33.999935]},"properties":{"address":"12224 Washington Blvd","unit":"12224-w-p","beds":2,"baths":1.0,"built":1960,"rent":2285.0,"rentdate":"2022/10/21","encumbered":"No","status":"Rented","slug":"12224-washington-blvd","owner":"Beal, Victoria","email":"victoriabeal@me.com","section":"No","sfr_exempt":false,"perc_increase":0.03160270880361174,"date_problem":false,"unit_problem":false,"address_problem":true,"registered":true,"multiple_owners":false}},{"type":"Feature","geometry":{"type":"Point","coordinates":[-118.428807,33.999935]},"properties":{"address":"12224 Washington Blvd","unit":"12226-5","beds":3,"baths":1.0,"built":1960,"rent":2336.0,"rentdate":"2022/10/21","encumbered":"No","status":"Rented","slug":"12224-washington-blvd","owner":"Beal, Victoria","email":"victoriabeal@me.com","section":"No","sfr_exempt":false,"perc_increase":0.07106831728564879,"date_problem":true,"unit_problem":true,"address_problem":true,"registered":true,"multiple_owners":false}},{"type":"Feature","geometry":{"type":"Point","coordinates":[-118.382862,34.029134]},"properties":{"address":"3327 Caroline Ave","unit":"3327","beds":2,"baths":1.0,"built":1922,"rent":3950.0,"rentdate":"2022/10/19","encumbered":"No","status":"Rented","slug":"3327-caroline-ave","owner":"Yamamoto, Jill","email":"itupelo@gmail.com","section":"No","sfr_exempt":false,"perc_increase":0.0,"date_problem":false,"unit_problem":false,"address_problem":false,"registered":true,"multiple_owners":false}},{"type":"Feature","geometry":{"type":"Point","coordinates":[-118.385096,34.023047]},"properties":{"address":"8647 Higuera St","unit":"1","beds":1,"baths":1.0,"built":0,"rent":2650.0,"rentdate":"2022/10/19","encumbered":"No","status":"Rented","slug":"8647-higuera-st","owner":"Noorvash, Ramin","email":"","section":"No","sfr_exempt":false,"perc_increase":0.7666666666666667,"date_problem":false,"unit_problem":false,"address_problem":true,"registered":true,"multiple_owners":false}},{"type":"Feature","geometry":{"type":"Point","coordinates":[-118.385096,34.023047]},"properties":{"address":"8647 Higuera St","unit":"2","beds":3,"baths":3.0,"built":0,"rent":5000.0,"rentdate":"2022/10/19","encumbered":"No","status":"Rented","slug":"8647-higuera-st","owner":"Noorvash, Ramin","email":"","section":"No","sfr_exempt":false,"perc_increase":0.25,"date_problem":true,"unit_problem":true,"address_problem":true,"registered":true,"multiple_owners":false}},{"type":"Feature","geometry":{"type":"Point","coordinates":[-118.382862,34.029134]},"properties":{"address":"3327 Caroline Ave","unit":"3325","beds":2,"baths":1.0,"built":2010,"rent":4580.0,"rentdate":"2022/10/19","encumbered":"No","status":"Rented","slug":"3327-caroline-ave","owner":"Yamamoto, Jill","email":"itupelo@gmail.com","section":"No","sfr_exempt":false,"perc_increase":0.0,"date_problem":false,"unit_problem":false,"address_problem":false,"registered":true,"multiple_owners":false}},{"type":"Feature","geometry":{"type":"Point","coordinates":[-118.394076,34.019549]},"properties":{"address":"4109 Duquesne Ave","unit":"4109","beds":1,"baths":1.0,"built":1940,"rent":2500.0,"rentdate":"2022/10/15","encumbered":"No","status":"Rented","slug":"4109-duquesne-ave","owner":"E, Drobnick Molly","email":"","section":"No","sfr_exempt":false,"perc_increase":-0.16666666666666666,"date_problem":false,"unit_problem":false,"address_problem":false,"registered":true,"multiple_owners":false}},{"type":"Feature","geometry":{"type":"Point","coordinates":[-118.383086,34.025367]},"properties":{"address":"3567 Schaefer St","unit":"1","beds":3,"baths":2.0,"built":1929,"rent":3550.0,"rentdate":"2022/10/06","encumbered":"No","status":"Rented","slug":"3567-schaefer-st","owner":"Marcum, Mark L","email":"","section":"No","sfr_exempt":true,"perc_increase":0.0,"date_problem":false,"unit_problem":false,"address_problem":false,"registered":true,"multiple_owners":false}},{"type":"Feature","geometry":{"type":"Point","coordinates":[-118.391411,34.007643]},"properties":{"address":"4804 Hollow Corner Rd","unit":"128","beds":2,"baths":2.0,"built":1973,"rent":2350.0,"rentdate":"2022/10/06","encumbered":"No","status":"Rented","slug":"4804-hollow-corner-rd","owner":"Ribeiro, Lucilene","email":"lucihills1979@gmail.com","section":"No","sfr_exempt":true,"perc_increase":null,"date_problem":false,"unit_problem":false,"address_problem":false,"registered":true,"multiple_owners":true}},{"type":"Feature","geometry":{"type":"Point","coordinates":[-118.380454,33.986935]},"properties":{"address":"5824 Canterbury Dr","unit":"1","beds":3,"baths":3.0,"built":1981,"rent":4500.0,"rentdate":"2022/10/04","encumbered":"No","status":"Rented","slug":"5824-canterbury-dr","owner":"Fung, Catherine","email":"robocat2015@gmail.com","section":"No","sfr_exempt":true,"perc_increase":null,"date_problem":false,"unit_problem":false,"address_problem":false,"registered":true,"multiple_owners":false}},{"type":"Feature","geometry":{"type":"Point","coordinates":[-118.392133,34.016365]},"properties":{"address":"4223 Madison Ave","unit":"1","beds":1,"baths":1.0,"built":1923,"rent":0.0,"rentdate":"2022/10/03","encumbered":"No","status":"Vacant","slug":"4223-madison-ave","owner":"Chin-Dickey, Emile","email":"e.chindickey@gmail.com","section":"No","sfr_exempt":false,"perc_increase":null,"date_problem":false,"unit_problem":false,"address_problem":false,"registered":true,"multiple_owners":true}},{"type":"Feature","geometry":{"type":"Point","coordinates":[-118.388326,34.008223]},"properties":{"address":"5106 Huck Finn Ln","unit":"5106","beds":3,"baths":2.5,"built":1973,"rent":3675.0,"rentdate":"2022/10/03","encumbered":"No","status":"Rented","slug":"5106-huck-finn-ln","owner":"Amiri Ghaemmaghami, Hamed","email":"hamirig@gmail.com","section":"No","sfr_exempt":true,"perc_increase":0.0,"date_problem":false,"unit_problem":false,"address_problem":false,"registered":true,"multiple_owners":false}},{"type":"Feature","geometry":{"type":"Point","coordinates":[-118.405288,34.000204]},"properties":{"address":"11214 Huntley Pl","unit":"1","beds":3,"baths":2.0,"built":1955,"rent":4995.0,"rentdate":"2022/10/03","encumbered":"No","status":"Rented","slug":"11214-huntley-pl","owner":"Kang, William","email":"bill.kang@gmail.com","section":"No","sfr_exempt":true,"perc_increase":0.0,"date_problem":false,"unit_problem":false,"address_problem":false,"registered":true,"multiple_owners":false}},{"type":"Feature","geometry":{"type":"Point","coordinates":[-118.385571,33.979619]},"properties":{"address":"6505 Green Valley Cir","unit":"211","beds":2,"baths":2.0,"built":0,"rent":0.0,"rentdate":"2022/10/02","encumbered":"No","status":"Vacant","slug":"6505-green-valley-cir","owner":"Jones Shedrick D And Ella R Trust S D And E R Jone","email":"","section":"No","sfr_exempt":true,"perc_increase":null,"date_problem":false,"unit_problem":false,"address_problem":false,"registered":true,"multiple_owners":true}},{"type":"Feature","geometry":{"type":"Point","coordinates":[-118.38675,33.979373]},"properties":{"address":"6575 Green Valley Cir","unit":"308","beds":2,"baths":2.0,"built":1965,"rent":1900.0,"rentdate":"2022/09/30","encumbered":"No","status":"Rented","slug":"6575-green-valley-cir","owner":"Charles, Karin E","email":"Karin.charles49@yahoo.com","section":"No","sfr_exempt":true,"perc_increase":0.0,"date_problem":false,"unit_problem":false,"address_problem":false,"registered":true,"multiple_owners":true}},{"type":"Feature","geometry":{"type":"Point","coordinates":[-118.380761,33.986418]},"properties":{"address":"5900 Canterbury Dr","unit":"a119","beds":2,"baths":1.5,"built":1971,"rent":1900.0,"rentdate":"2022/09/29","encumbered":"No","status":"Rented","slug":"5900-canterbury-dr","owner":"Monghate, Farideh","email":"","section":"No","sfr_exempt":true,"perc_increase":0.0,"date_problem":false,"unit_problem":false,"address_problem":false,"registered":true,"multiple_owners":true}},{"type":"Feature","geometry":{"type":"Point","coordinates":[-118.383162,33.98409]},"properties":{"address":"5650 Sumner Way","unit":"201","beds":2,"baths":2.0,"built":1968,"rent":3000.0,"rentdate":"2022/09/28","encumbered":"No","status":"Rented","slug":"5650-sumner-way","owner":"Carmichael, Karen Y","email":"kycarmichael@gmail.com","section":"No","sfr_exempt":true,"perc_increase":null,"date_problem":false,"unit_problem":false,"address_problem":false,"registered":true,"multiple_owners":true}},{"type":"Feature","geometry":{"type":"Point","coordinates":[-118.403111,34.009539]},"properties":{"address":"10839 Barman Ave","unit":"1","beds":3,"baths":2.0,"built":1938,"rent":5500.0,"rentdate":"2022/09/27","encumbered":"No","status":"Rented","slug":"10839-barman-ave","owner":"Elomeri, Reem","email":"","section":"No","sfr_exempt":true,"perc_increase":0.0,"date_problem":false,"unit_problem":false,"address_problem":false,"registered":true,"multiple_owners":false}},{"type":"Feature","geometry":{"type":"Point","coordinates":[-118.409843,34.009185]},"properties":{"address":"4060 Tilden Ave","unit":"4058","beds":3,"baths":2.5,"built":1990,"rent":5195.0,"rentdate":"2022/09/26","encumbered":"No","status":"Rented","slug":"4060-tilden-ave","owner":"Tru, Strumwasser Scott Cotrustee Strumwasser Rahbar","email":"","section":"No","sfr_exempt":false,"perc_increase":0.0,"date_problem":false,"unit_problem":false,"address_problem":false,"registered":true,"multiple_owners":false}},{"type":"Feature","geometry":{"type":"Point","coordinates":[-118.40955,34.010664]},"properties":{"address":"4044 Huron Ave","unit":"4044","beds":2,"baths":2.0,"built":1931,"rent":0.0,"rentdate":"2022/09/26","encumbered":"No","status":"Vacant","slug":"4044-huron-ave","owner":"Sales Miller, Lisa","email":"lisasmiller5@protonmail.com","section":"No","sfr_exempt":false,"perc_increase":null,"date_problem":false,"unit_problem":false,"address_problem":false,"registered":true,"multiple_owners":true}},{"type":"Feature","geometry":{"type":"Point","coordinates":[-118.40955,34.010664]},"properties":{"address":"4044 Huron Ave","unit":"4044-b","beds":0,"baths":1.0,"built":1931,"rent":0.0,"rentdate":"2022/09/26","encumbered":"No","status":"Vacant","slug":"4044-huron-ave","owner":"Sales Miller, Lisa","email":"lisasmiller5@protonmail.com","section":"No","sfr_exempt":false,"perc_increase":null,"date_problem":false,"unit_problem":false,"address_problem":false,"registered":true,"multiple_owners":true}},{"type":"Feature","geometry":{"type":"Point","coordinates":[-118.40955,34.010664]},"properties":{"address":"4044 Huron Ave","unit":"4044-a","beds":1,"baths":1.0,"built":1931,"rent":0.0,"rentdate":"2022/09/26","encumbered":"No","status":"Vacant","slug":"4044-huron-ave","owner":"Sales Miller, Lisa","email":"lisasmiller5@protonmail.com","section":"No","sfr_exempt":false,"perc_increase":null,"date_problem":false,"unit_problem":false,"address_problem":false,"registered":true,"multiple_owners":true}},{"type":"Feature","geometry":{"type":"Point","coordinates":[-118.408417,34.011375]},"properties":{"address":"4070 Charles Ave","unit":"4070","beds":3,"baths":1.5,"built":1952,"rent":3700.0,"rentdate":"2022/09/23","encumbered":"No","status":"Rented","slug":"4070-charles-ave","owner":"Cheng, Jack C","email":"jcheng4design@yahoo.com","section":"No","sfr_exempt":false,"perc_increase":0.027777777777777776,"date_problem":false,"unit_problem":false,"address_problem":false,"registered":true,"multiple_owners":false}},{"type":"Feature","geometry":{"type":"Point","coordinates":[-118.407478,34.008993]},"properties":{"address":"10960 Aletta Ave","unit":"1","beds":3,"baths":1.0,"built":1944,"rent":1500.0,"rentdate":"2022/09/22","encumbered":"No","status":"Rented","slug":"10960-aletta-ave","owner":"Triana, Joanne","email":"jojo68@msn.com","section":"No","sfr_exempt":true,"perc_increase":0.0,"date_problem":false,"unit_problem":false,"address_problem":false,"registered":true,"multiple_owners":false}},{"type":"Feature","geometry":{"type":"Point","coordinates":[-118.396818,34.018781]},"properties":{"address":"4037 Madison Ave","unit":"4039-5","beds":1,"baths":1.0,"built":1915,"rent":1350.0,"rentdate":"2022/09/22","encumbered":"No","status":"Rented","slug":"4037-madison-ave","owner":"Miller, Lisa S","email":"lisasmiller5@protonmail.com","section":"No","sfr_exempt":false,"perc_increase":0.0,"date_problem":false,"unit_problem":false,"address_problem":false,"registered":true,"multiple_owners":false}},{"type":"Feature","geometry":{"type":"Point","coordinates":[-118.396818,34.018781]},"properties":{"address":"4037 Madison Ave","unit":"4037","beds":2,"baths":1.25,"built":1915,"rent":2664.0,"rentdate":"2022/09/22","encumbered":"No","status":"Rented","slug":"4037-madison-ave","owner":"Miller, Lisa S","email":"lisasmiller5@protonmail.com","section":"No","sfr_exempt":false,"perc_increase":0.0,"date_problem":false,"unit_problem":false,"address_problem":false,"registered":true,"multiple_owners":false}},{"type":"Feature","geometry":{"type":"Point","coordinates":[-118.396818,34.018781]},"properties":{"address":"4037 Madison Ave","unit":"4039","beds":1,"baths":1.0,"built":1915,"rent":1047.0,"rentdate":"2022/09/22","encumbered":"No","status":"Rented","slug":"4037-madison-ave","owner":"Miller, Lisa S","email":"lisasmiller5@protonmail.com","section":"No","sfr_exempt":false,"perc_increase":0.0,"date_problem":false,"unit_problem":false,"address_problem":false,"registered":true,"multiple_owners":false}},{"type":"Feature","geometry":{"type":"Point","coordinates":[-118.382629,34.028299]},"properties":{"address":"3405 Caroline Ave","unit":"3","beds":2,"baths":1.0,"built":1923,"rent":3200.0,"rentdate":"2022/09/19","encumbered":"No","status":"Rented","slug":"3405-caroline-ave","owner":"Ferdon, Judson","email":"judson.ferdon@GMAIL.COM","section":"No","sfr_exempt":false,"perc_increase":0.0,"date_problem":false,"unit_problem":true,"address_problem":true,"registered":true,"multiple_owners":false}},{"type":"Feature","geometry":{"type":"Point","coordinates":[-118.382629,34.028299]},"properties":{"address":"3405 Caroline Ave","unit":"2","beds":2,"baths":2.0,"built":1923,"rent":4195.0,"rentdate":"2022/09/19","encumbered":"No","status":"Rented","slug":"3405-caroline-ave","owner":"Ferdon, Judson","email":"judson.ferdon@GMAIL.COM","section":"No","sfr_exempt":false,"perc_increase":0.0,"date_problem":false,"unit_problem":false,"address_problem":true,"registered":true,"multiple_owners":false}},{"type":"Feature","geometry":{"type":"Point","coordinates":[-118.382629,34.028299]},"properties":{"address":"3405 Caroline Ave","unit":"1","beds":2,"baths":2.0,"built":1923,"rent":3095.0,"rentdate":"2022/09/19","encumbered":"No","status":"Rented","slug":"3405-caroline-ave","owner":"Ferdon, Judson","email":"judson.ferdon@GMAIL.COM","section":"No","sfr_exempt":false,"perc_increase":0.0,"date_problem":false,"unit_problem":false,"address_problem":true,"registered":true,"multiple_owners":false}},{"type":"Feature","geometry":{"type":"Point","coordinates":[-118.393281,34.013139]},"properties":{"address":"4261 Jackson Ave","unit":"4261","beds":1,"baths":1.0,"built":1956,"rent":3400.0,"rentdate":"2022/09/17","encumbered":"No","status":"Vacant","slug":"4261-jackson-ave","owner":"Istwani, Fawaz","email":"4065jackson@gmail.com","section":"No","sfr_exempt":false,"perc_increase":0.0,"date_problem":false,"unit_problem":false,"address_problem":false,"registered":true,"multiple_owners":false}},{"type":"Feature","geometry":{"type":"Point","coordinates":[-118.396686,34.00818]},"properties":{"address":"4900 Overland Ave","unit":"168","beds":2,"baths":1.5,"built":1973,"rent":1895.0,"rentdate":"2022/09/17","encumbered":"No","status":"Rented","slug":"4900-overland-ave","owner":"Gross, Lee M","email":"","section":"No","sfr_exempt":true,"perc_increase":0.0,"date_problem":false,"unit_problem":false,"address_problem":false,"registered":true,"multiple_owners":true}},{"type":"Feature","geometry":{"type":"Point","coordinates":[-118.389278,34.009443]},"properties":{"address":"1201 Raintree Cir","unit":"1201","beds":2,"baths":2.0,"built":1972,"rent":2200.0,"rentdate":"2022/09/17","encumbered":"No","status":"Rented","slug":"1201-raintree-cir","owner":"Kornblum Oscar And Sharri L Trust Kornblum Family","email":"","section":"No","sfr_exempt":true,"perc_increase":0.0,"date_problem":false,"unit_problem":false,"address_problem":false,"registered":true,"multiple_owners":false}},{"type":"Feature","geometry":{"type":"Point","coordinates":[-118.393281,34.013139]},"properties":{"address":"4261 Jackson Ave","unit":"4265","beds":2,"baths":1.0,"built":1956,"rent":4500.0,"rentdate":"2022/09/17","encumbered":"No","status":"Vacant","slug":"4261-jackson-ave","owner":"Istwani, Fawaz","email":"4065jackson@gmail.com","section":"No","sfr_exempt":false,"perc_increase":0.0,"date_problem":false,"unit_problem":false,"address_problem":false,"registered":true,"multiple_owners":false}},{"type":"Feature","geometry":{"type":"Point","coordinates":[-118.396402,34.013627]},"properties":{"address":"4273 Vinton Ave","unit":"4273","beds":3,"baths":2.0,"built":1939,"rent":5600.0,"rentdate":"2022/09/17","encumbered":"No","status":"Rented","slug":"4273-vinton-ave","owner":"M, Carrillo Anthony","email":"","section":"No","sfr_exempt":true,"perc_increase":0.0,"date_problem":false,"unit_problem":false,"address_problem":false,"registered":true,"multiple_owners":false}},{"type":"Feature","geometry":{"type":"Point","coordinates":[-118.393281,34.013139]},"properties":{"address":"4261 Jackson Ave","unit":"4263","beds":1,"baths":1.0,"built":1956,"rent":3400.0,"rentdate":"2022/09/17","encumbered":"No","status":"Vacant","slug":"4261-jackson-ave","owner":"Istwani, Fawaz","email":"4065jackson@gmail.com","section":"No","sfr_exempt":false,"perc_increase":0.0,"date_problem":false,"unit_problem":false,"address_problem":false,"registered":true,"multiple_owners":false}},{"type":"Feature","geometry":{"type":"Point","coordinates":[-118.410914,34.016093]},"properties":{"address":"10878 Venice Blvd","unit":"g1","beds":1,"baths":1.0,"built":1953,"rent":1990.0,"rentdate":"2022/09/16","encumbered":"No","status":"Rented","slug":"10878-venice-blvd","owner":"Leeds, Benjamin","email":"management@benleedsproperties.com","section":"No","sfr_exempt":false,"perc_increase":0.02313624678663239,"date_problem":false,"unit_problem":false,"address_problem":false,"registered":true,"multiple_owners":false}},{"type":"Feature","geometry":{"type":"Point","coordinates":[-118.410914,34.016093]},"properties":{"address":"10878 Venice Blvd","unit":"g3","beds":1,"baths":1.0,"built":1953,"rent":1625.0,"rentdate":"2022/09/16","encumbered":"No","status":"Rented","slug":"10878-venice-blvd","owner":"Leeds, Benjamin","email":"management@benleedsproperties.com","section":"No","sfr_exempt":false,"perc_increase":0.0,"date_problem":false,"unit_problem":false,"address_problem":false,"registered":true,"multiple_owners":false}},{"type":"Feature","geometry":{"type":"Point","coordinates":[-118.410914,34.016093]},"properties":{"address":"10878 Venice Blvd","unit":"g2","beds":1,"baths":1.0,"built":1953,"rent":1846.0,"rentdate":"2022/09/16","encumbered":"No","status":"Rented","slug":"10878-venice-blvd","owner":"Leeds, Benjamin","email":"management@benleedsproperties.com","section":"No","sfr_exempt":false,"perc_increase":0.0,"date_problem":false,"unit_problem":false,"address_problem":false,"registered":true,"multiple_owners":false}},{"type":"Feature","geometry":{"type":"Point","coordinates":[-118.410914,34.016093]},"properties":{"address":"10878 Venice Blvd","unit":"g6","beds":1,"baths":1.0,"built":1953,"rent":1905.5,"rentdate":"2022/09/16","encumbered":"No","status":"Rented","slug":"10878-venice-blvd","owner":"Leeds, Benjamin","email":"management@benleedsproperties.com","section":"No","sfr_exempt":false,"perc_increase":0.0,"date_problem":false,"unit_problem":false,"address_problem":false,"registered":true,"multiple_owners":false}},{"type":"Feature","geometry":{"type":"Point","coordinates":[-118.410914,34.016093]},"properties":{"address":"10878 Venice Blvd","unit":"g4","beds":1,"baths":1.0,"built":1953,"rent":1775.0,"rentdate":"2022/09/16","encumbered":"No","status":"Rented","slug":"10878-venice-blvd","owner":"Leeds, Benjamin","email":"management@benleedsproperties.com","section":"No","sfr_exempt":false,"perc_increase":0.0,"date_problem":false,"unit_problem":false,"address_problem":false,"registered":true,"multiple_owners":false}},{"type":"Feature","geometry":{"type":"Point","coordinates":[-118.412905,34.011471]},"properties":{"address":"3937 Tilden Ave","unit":"c","beds":2,"baths":1.0,"built":1944,"rent":2450.0,"rentdate":"2022/09/16","encumbered":"No","status":"Rented","slug":"3937-tilden-ave","owner":"Lewis, Richard","email":"richard.daniel.lewis@gmail.com","section":"No","sfr_exempt":false,"perc_increase":0.0,"date_problem":false,"unit_problem":false,"address_problem":false,"registered":true,"multiple_owners":false}},{"type":"Feature","geometry":{"type":"Point","coordinates":[-118.392008,34.005144]},"properties":{"address":"11302 Summertime Ln","unit":"11302","beds":3,"baths":2.0,"built":1950,"rent":2675.0,"rentdate":"2022/09/16","encumbered":"No","status":"Rented","slug":"11302-summertime-ln","owner":"Elkind, Jerry","email":"jerry.empire@gmail.com","section":"No","sfr_exempt":true,"perc_increase":0.0,"date_problem":false,"unit_problem":false,"address_problem":false,"registered":true,"multiple_owners":false}},{"type":"Feature","geometry":{"type":"Point","coordinates":[-118.412905,34.011471]},"properties":{"address":"3937 Tilden Ave","unit":"b","beds":2,"baths":1.0,"built":1944,"rent":2350.0,"rentdate":"2022/09/16","encumbered":"No","status":"Rented","slug":"3937-tilden-ave","owner":"Lewis, Richard","email":"richard.daniel.lewis@gmail.com","section":"No","sfr_exempt":false,"perc_increase":0.0,"date_problem":false,"unit_problem":false,"address_problem":false,"registered":true,"multiple_owners":false}},{"type":"Feature","geometry":{"type":"Point","coordinates":[-118.393034,34.011524]},"properties":{"address":"4387 Jasmine Ave","unit":"house","beds":3,"baths":2.0,"built":1950,"rent":5185.0,"rentdate":"2022/09/16","encumbered":"No","status":"Rented","slug":"4387-jasmine-ave","owner":"Elkind Jerry J And Andrea B Trust Elkind Family Tr","email":"","section":"No","sfr_exempt":true,"perc_increase":0.0,"date_problem":false,"unit_problem":false,"address_problem":false,"registered":true,"multiple_owners":false}},{"type":"Feature","geometry":{"type":"Point","coordinates":[-118.410914,34.016093]},"properties":{"address":"10878 Venice Blvd","unit":"v1","beds":1,"baths":1.0,"built":1953,"rent":1625.0,"rentdate":"2022/09/16","encumbered":"No","status":"Rented","slug":"10878-venice-blvd","owner":"Leeds, Benjamin","email":"management@benleedsproperties.com","section":"No","sfr_exempt":false,"perc_increase":0.0,"date_problem":false,"unit_problem":false,"address_problem":false,"registered":true,"multiple_owners":false}},{"type":"Feature","geometry":{"type":"Point","coordinates":[-118.385543,34.025044]},"properties":{"address":"8910 Carson St","unit":"8910","beds":2,"baths":1.0,"built":1922,"rent":3700.0,"rentdate":"2022/09/16","encumbered":"No","status":"Rented","slug":"8910-carson-st","owner":"Sucher Iii, Robert L","email":"","section":"No","sfr_exempt":true,"perc_increase":0.0,"date_problem":false,"unit_problem":false,"address_problem":false,"registered":true,"multiple_owners":false}},{"type":"Feature","geometry":{"type":"Point","coordinates":[-118.410914,34.016093]},"properties":{"address":"10878 Venice Blvd","unit":"g5","beds":1,"baths":1.0,"built":1953,"rent":1695.0,"rentdate":"2022/09/16","encumbered":"No","status":"Rented","slug":"10878-venice-blvd","owner":"Leeds, Benjamin","email":"management@benleedsproperties.com","section":"No","sfr_exempt":false,"perc_increase":0.0,"date_problem":false,"unit_problem":false,"address_problem":false,"registered":true,"multiple_owners":false}},{"type":"Feature","geometry":{"type":"Point","coordinates":[-118.410914,34.016093]},"properties":{"address":"10878 Venice Blvd","unit":"v4","beds":1,"baths":1.0,"built":1953,"rent":1575.0,"rentdate":"2022/09/16","encumbered":"No","status":"Rented","slug":"10878-venice-blvd","owner":"Leeds, Benjamin","email":"management@benleedsproperties.com","section":"No","sfr_exempt":false,"perc_increase":0.0,"date_problem":false,"unit_problem":false,"address_problem":false,"registered":true,"multiple_owners":false}},{"type":"Feature","geometry":{"type":"Point","coordinates":[-118.412905,34.011471]},"properties":{"address":"3937 Tilden Ave","unit":"a","beds":2,"baths":1.0,"built":1944,"rent":2300.0,"rentdate":"2022/09/16","encumbered":"No","status":"Rented","slug":"3937-tilden-ave","owner":"Lewis, Richard","email":"richard.daniel.lewis@gmail.com","section":"No","sfr_exempt":false,"perc_increase":0.0,"date_problem":false,"unit_problem":false,"address_problem":false,"registered":true,"multiple_owners":false}},{"type":"Feature","geometry":{"type":"Point","coordinates":[-118.410914,34.016093]},"properties":{"address":"10878 Venice Blvd","unit":"v3","beds":1,"baths":1.0,"built":1953,"rent":1625.0,"rentdate":"2022/09/16","encumbered":"No","status":"Rented","slug":"10878-venice-blvd","owner":"Leeds, Benjamin","email":"management@benleedsproperties.com","section":"No","sfr_exempt":false,"perc_increase":0.0,"date_problem":false,"unit_problem":false,"address_problem":false,"registered":true,"multiple_owners":false}},{"type":"Feature","geometry":{"type":"Point","coordinates":[-118.410914,34.016093]},"properties":{"address":"10878 Venice Blvd","unit":"v2","beds":1,"baths":1.0,"built":1953,"rent":1975.0,"rentdate":"2022/09/16","encumbered":"No","status":"Vacant","slug":"10878-venice-blvd","owner":"Leeds, Benjamin","email":"management@benleedsproperties.com","section":"No","sfr_exempt":false,"perc_increase":0.015424164524421594,"date_problem":false,"unit_problem":false,"address_problem":false,"registered":true,"multiple_owners":false}},{"type":"Feature","geometry":{"type":"Point","coordinates":[-118.395713,34.015727]},"properties":{"address":"4143 Jackson Ave","unit":"4147","beds":0,"baths":1.0,"built":1955,"rent":1700.0,"rentdate":"2022/09/15","encumbered":"No","status":"Rented","slug":"4143-jackson-ave","owner":"Delgado, Ester","email":"esterdel@aol.com","section":"No","sfr_exempt":false,"perc_increase":0.0,"date_problem":false,"unit_problem":false,"address_problem":false,"registered":true,"multiple_owners":false}},{"type":"Feature","geometry":{"type":"Point","coordinates":[-118.392706,34.01666]},"properties":{"address":"4205 Madison Ave","unit":"1","beds":2,"baths":2.0,"built":1991,"rent":2000.0,"rentdate":"2022/09/15","encumbered":"No","status":"Rented","slug":"4205-madison-ave","owner":"Webster, Mary A","email":"","section":"No","sfr_exempt":false,"perc_increase":0.0,"date_problem":false,"unit_problem":false,"address_problem":false,"registered":true,"multiple_owners":false}},{"type":"Feature","geometry":{"type":"Point","coordinates":[-118.395713,34.015727]},"properties":{"address":"4143 Jackson Ave","unit":"4145","beds":0,"baths":1.0,"built":1955,"rent":1400.0,"rentdate":"2022/09/15","encumbered":"No","status":"Rented","slug":"4143-jackson-ave","owner":"Delgado, Ester","email":"esterdel@aol.com","section":"No","sfr_exempt":false,"perc_increase":0.0,"date_problem":false,"unit_problem":false,"address_problem":false,"registered":true,"multiple_owners":false}},{"type":"Feature","geometry":{"type":"Point","coordinates":[-118.395713,34.015727]},"properties":{"address":"4143 Jackson Ave","unit":"4143","beds":2,"baths":2.0,"built":1948,"rent":3400.0,"rentdate":"2022/09/15","encumbered":"No","status":"Rented","slug":"4143-jackson-ave","owner":"Delgado, Ester","email":"esterdel@aol.com","section":"No","sfr_exempt":false,"perc_increase":0.0,"date_problem":false,"unit_problem":false,"address_problem":false,"registered":true,"multiple_owners":false}},{"type":"Feature","geometry":{"type":"Point","coordinates":[-118.402173,33.996644]},"properties":{"address":"11185 Mcdonald St","unit":"1","beds":3,"baths":2.0,"built":1952,"rent":6318.0,"rentdate":"2022/09/15","encumbered":"No","status":"Rented","slug":"11185-mcdonald-st","owner":"Bergman, Natalie G","email":"ngbergman@gmail.com","section":"No","sfr_exempt":true,"perc_increase":0.049850448654037885,"date_problem":false,"unit_problem":false,"address_problem":false,"registered":true,"multiple_owners":false}},{"type":"Feature","geometry":{"type":"Point","coordinates":[-118.390226,34.008752]},"properties":{"address":"5317 Raintree Cir","unit":"5317","beds":2,"baths":2.0,"built":1970,"rent":3085.0,"rentdate":"2022/09/15","encumbered":"No","status":"Rented","slug":"5317-raintree-cir","owner":"Wohrle, Margaret","email":"margarets@woodriv.com","section":"No","sfr_exempt":true,"perc_increase":0.0,"date_problem":false,"unit_problem":false,"address_problem":false,"registered":true,"multiple_owners":false}},{"type":"Feature","geometry":{"type":"Point","coordinates":[-118.411791,34.015494]},"properties":{"address":"3813 College Ave","unit":"3815-25","beds":2,"baths":1.0,"built":1978,"rent":2150.0,"rentdate":"2022/09/15","encumbered":"No","status":"Rented","slug":"3813-college-ave","owner":"Raul Merlino, Raul","email":"raulmerlino80@hotmail.com","section":"No","sfr_exempt":false,"perc_increase":0.0,"date_problem":false,"unit_problem":false,"address_problem":false,"registered":true,"multiple_owners":false}},{"type":"Feature","geometry":{"type":"Point","coordinates":[-118.411791,34.015494]},"properties":{"address":"3813 College Ave","unit":"3813","beds":2,"baths":1.0,"built":1978,"rent":1965.0,"rentdate":"2022/09/15","encumbered":"No","status":"Rented","slug":"3813-college-ave","owner":"Raul Merlino, Raul","email":"raulmerlino80@hotmail.com","section":"No","sfr_exempt":false,"perc_increase":0.0,"date_problem":false,"unit_problem":false,"address_problem":false,"registered":true,"multiple_owners":false}},{"type":"Feature","geometry":{"type":"Point","coordinates":[-118.411791,34.015494]},"properties":{"address":"3813 College Ave","unit":"3815","beds":0,"baths":1.0,"built":1978,"rent":700.0,"rentdate":"2022/09/15","encumbered":"No","status":"Rented","slug":"3813-college-ave","owner":"Raul Merlino, Raul","email":"raulmerlino80@hotmail.com","section":"No","sfr_exempt":false,"perc_increase":0.0,"date_problem":false,"unit_problem":false,"address_problem":false,"registered":true,"multiple_owners":false}},{"type":"Feature","geometry":{"type":"Point","coordinates":[-118.411791,34.015494]},"properties":{"address":"3813 College Ave","unit":"3815-5","beds":1,"baths":1.0,"built":1978,"rent":2150.0,"rentdate":"2022/09/15","encumbered":"No","status":"Rented","slug":"3813-college-ave","owner":"Raul Merlino, Raul","email":"raulmerlino80@hotmail.com","section":"No","sfr_exempt":false,"perc_increase":0.0,"date_problem":false,"unit_problem":false,"address_problem":false,"registered":true,"multiple_owners":false}},{"type":"Feature","geometry":{"type":"Point","coordinates":[-118.39916,33.995689]},"properties":{"address":"5349 Blanco Way","unit":"1","beds":3,"baths":1.5,"built":1952,"rent":3400.0,"rentdate":"2022/09/14","encumbered":"No","status":"Rented","slug":"5349-blanco-way","owner":"Mandaville, Michael","email":"","section":"No","sfr_exempt":true,"perc_increase":0.0,"date_problem":false,"unit_problem":false,"address_problem":false,"registered":true,"multiple_owners":false}},{"type":"Feature","geometry":{"type":"Point","coordinates":[-118.391006,34.006221]},"properties":{"address":"4915 Indian Wood Rd","unit":"600","beds":3,"baths":2.0,"built":1973,"rent":3529.0,"rentdate":"2022/09/14","encumbered":"No","status":"Rented","slug":"4915-indian-wood-rd","owner":"Meggerson, Muriel J","email":"meggersonsandy@gmail.com","section":"No","sfr_exempt":true,"perc_increase":0.08584615384615385,"date_problem":false,"unit_problem":false,"address_problem":false,"registered":true,"multiple_owners":true}},{"type":"Feature","geometry":{"type":"Point","coordinates":[-118.383162,33.98409]},"properties":{"address":"5650 Sumner Way","unit":"105","beds":1,"baths":1.0,"built":1900,"rent":1200.0,"rentdate":"2022/09/14","encumbered":"No","status":"Rented","slug":"5650-sumner-way","owner":"Peracha, Mohammed Z","email":"mzperacha@gmail.com","section":"No","sfr_exempt":true,"perc_increase":0.0,"date_problem":false,"unit_problem":false,"address_problem":false,"registered":true,"multiple_owners":true}},{"type":"Feature","geometry":{"type":"Point","coordinates":[-118.396117,34.01842]},"properties":{"address":"4063 Madison Ave","unit":"4063","beds":1,"baths":1.0,"built":1928,"rent":2600.0,"rentdate":"2022/09/14","encumbered":"No","status":"Rented","slug":"4063-madison-ave","owner":"Ainslie, Michael","email":"","section":"No","sfr_exempt":false,"perc_increase":null,"date_problem":false,"unit_problem":false,"address_problem":false,"registered":true,"multiple_owners":false}},{"type":"Feature","geometry":{"type":"Point","coordinates":[-118.386005,33.978806]},"properties":{"address":"6625 Green Valley Cir","unit":"308","beds":2,"baths":2.0,"built":1970,"rent":2690.0,"rentdate":"2022/09/14","encumbered":"No","status":"Rented","slug":"6625-green-valley-cir","owner":"Sakakibara, Sarah K","email":"sarahsaka@ca.rr.com","section":"No","sfr_exempt":true,"perc_increase":0.0,"date_problem":false,"unit_problem":false,"address_problem":false,"registered":true,"multiple_owners":true}},{"type":"Feature","geometry":{"type":"Point","coordinates":[-118.388116,34.00057]},"properties":{"address":"10716 Northgate St","unit":"1","beds":2,"baths":1.0,"built":1948,"rent":2368.0,"rentdate":"2022/09/13","encumbered":"No","status":"Rented","slug":"10716-northgate-st","owner":"Sebastian, Peter","email":"sebastianesq@gmail.com","section":"No","sfr_exempt":false,"perc_increase":0.04501323918799647,"date_problem":false,"unit_problem":false,"address_problem":false,"registered":true,"multiple_owners":false}},{"type":"Feature","geometry":{"type":"Point","coordinates":[-118.385952,33.979298]},"properties":{"address":"6525 Green Valley Cir","unit":"216","beds":3,"baths":2.0,"built":1970,"rent":2995.0,"rentdate":"2022/09/13","encumbered":"No","status":"Rented","slug":"6525-green-valley-cir","owner":"Kindle, James  T","email":"jimkindle@gmail.com","section":"No","sfr_exempt":true,"perc_increase":0.0,"date_problem":false,"unit_problem":false,"address_problem":false,"registered":true,"multiple_owners":true}},{"type":"Feature","geometry":{"type":"Point","coordinates":[-118.397814,34.017915]},"properties":{"address":"4031 Jackson Ave","unit":"201","beds":2,"baths":2.0,"built":1987,"rent":935.0,"rentdate":"2022/09/13","encumbered":"Yes","status":"Rented","slug":"4031-jackson-ave","owner":"Housing Authority, Tevis Barnes For","email":"tevis.barnes@culvercity.org","section":"No","sfr_exempt":false,"perc_increase":0.0,"date_problem":false,"unit_problem":false,"address_problem":false,"registered":true,"multiple_owners":false}},{"type":"Feature","geometry":{"type":"Point","coordinates":[-118.397814,34.017915]},"properties":{"address":"4031 Jackson Ave","unit":"102","beds":2,"baths":2.0,"built":1987,"rent":935.0,"rentdate":"2022/09/13","encumbered":"Yes","status":"Rented","slug":"4031-jackson-ave","owner":"Housing Authority, Tevis Barnes For","email":"tevis.barnes@culvercity.org","section":"No","sfr_exempt":false,"perc_increase":0.0,"date_problem":false,"unit_problem":false,"address_problem":false,"registered":true,"multiple_owners":false}},{"type":"Feature","geometry":{"type":"Point","coordinates":[-118.397814,34.017915]},"properties":{"address":"4031 Jackson Ave","unit":"206","beds":2,"baths":2.0,"built":1987,"rent":935.0,"rentdate":"2022/09/13","encumbered":"Yes","status":"Rented","slug":"4031-jackson-ave","owner":"Housing Authority, Tevis Barnes For","email":"tevis.barnes@culvercity.org","section":"No","sfr_exempt":false,"perc_increase":0.0,"date_problem":false,"unit_problem":false,"address_problem":false,"registered":true,"multiple_owners":false}},{"type":"Feature","geometry":{"type":"Point","coordinates":[-118.397814,34.017915]},"properties":{"address":"4031 Jackson Ave","unit":"205","beds":2,"baths":2.0,"built":1987,"rent":1100.0,"rentdate":"2022/09/13","encumbered":"Yes","status":"Rented","slug":"4031-jackson-ave","owner":"Housing Authority, Tevis Barnes For","email":"tevis.barnes@culvercity.org","section":"No","sfr_exempt":false,"perc_increase":0.0,"date_problem":false,"unit_problem":false,"address_problem":false,"registered":true,"multiple_owners":false}},{"type":"Feature","geometry":{"type":"Point","coordinates":[-118.397814,34.017915]},"properties":{"address":"4031 Jackson Ave","unit":"204","beds":2,"baths":2.0,"built":1987,"rent":935.0,"rentdate":"2022/09/13","encumbered":"Yes","status":"Rented","slug":"4031-jackson-ave","owner":"Housing Authority, Tevis Barnes For","email":"tevis.barnes@culvercity.org","section":"No","sfr_exempt":false,"perc_increase":0.0,"date_problem":false,"unit_problem":false,"address_problem":false,"registered":true,"multiple_owners":false}},{"type":"Feature","geometry":{"type":"Point","coordinates":[-118.408938,34.009678]},"properties":{"address":"4104 Huron Ave","unit":"4104","beds":1,"baths":1.0,"built":1947,"rent":0.0,"rentdate":"2022/09/13","encumbered":"No","status":"Vacant","slug":"4104-huron-ave","owner":"Lin, James","email":"","section":"No","sfr_exempt":false,"perc_increase":-1.0,"date_problem":false,"unit_problem":false,"address_problem":false,"registered":true,"multiple_owners":false}},{"type":"Feature","geometry":{"type":"Point","coordinates":[-118.397814,34.017915]},"properties":{"address":"4031 Jackson Ave","unit":"202","beds":2,"baths":2.0,"built":1987,"rent":913.0,"rentdate":"2022/09/13","encumbered":"Yes","status":"Rented","slug":"4031-jackson-ave","owner":"Housing Authority, Tevis Barnes For","email":"tevis.barnes@culvercity.org","section":"No","sfr_exempt":false,"perc_increase":0.0,"date_problem":false,"unit_problem":false,"address_problem":false,"registered":true,"multiple_owners":false}},{"type":"Feature","geometry":{"type":"Point","coordinates":[-118.397814,34.017915]},"properties":{"address":"4031 Jackson Ave","unit":"103","beds":2,"baths":2.0,"built":1987,"rent":0.0,"rentdate":"2022/09/13","encumbered":"Yes","status":"Vacant","slug":"4031-jackson-ave","owner":"Housing Authority, Tevis Barnes For","email":"tevis.barnes@culvercity.org","section":"No","sfr_exempt":false,"perc_increase":null,"date_problem":false,"unit_problem":false,"address_problem":false,"registered":true,"multiple_owners":false}},{"type":"Feature","geometry":{"type":"Point","coordinates":[-118.397814,34.017915]},"properties":{"address":"4031 Jackson Ave","unit":"203","beds":2,"baths":2.0,"built":1987,"rent":935.0,"rentdate":"2022/09/13","encumbered":"Yes","status":"Rented","slug":"4031-jackson-ave","owner":"Housing Authority, Tevis Barnes For","email":"tevis.barnes@culvercity.org","section":"No","sfr_exempt":false,"perc_increase":0.0,"date_problem":false,"unit_problem":false,"address_problem":false,"registered":true,"multiple_owners":false}},{"type":"Feature","geometry":{"type":"Point","coordinates":[-118.397814,34.017915]},"properties":{"address":"4031 Jackson Ave","unit":"101","beds":2,"baths":2.0,"built":1987,"rent":935.0,"rentdate":"2022/09/13","encumbered":"Yes","status":"Rented","slug":"4031-jackson-ave","owner":"Housing Authority, Tevis Barnes For","email":"tevis.barnes@culvercity.org","section":"No","sfr_exempt":false,"perc_increase":0.0,"date_problem":false,"unit_problem":false,"address_problem":false,"registered":true,"multiple_owners":false}},{"type":"Feature","geometry":{"type":"Point","coordinates":[-118.394698,34.016622]},"properties":{"address":"4149 La Salle Ave","unit":"4151-5","beds":1,"baths":1.0,"built":1952,"rent":1989.0,"rentdate":"2022/09/13","encumbered":"No","status":"Rented","slug":"4149-la-salle-ave","owner":"Smith S A Trust Smith Family Trust","email":"","section":"No","sfr_exempt":false,"perc_increase":0.0,"date_problem":false,"unit_problem":false,"address_problem":true,"registered":true,"multiple_owners":false}},{"type":"Feature","geometry":{"type":"Point","coordinates":[-118.394698,34.016622]},"properties":{"address":"4149 La Salle Ave","unit":"4151","beds":2,"baths":1.0,"built":1952,"rent":2965.0,"rentdate":"2022/09/13","encumbered":"No","status":"Rented","slug":"4149-la-salle-ave","owner":"Smith S A Trust Smith Family Trust","email":"","section":"No","sfr_exempt":false,"perc_increase":0.0,"date_problem":false,"unit_problem":true,"address_problem":true,"registered":true,"multiple_owners":false}},{"type":"Feature","geometry":{"type":"Point","coordinates":[-118.394698,34.016622]},"properties":{"address":"4149 La Salle Ave","unit":"4149","beds":1,"baths":1.0,"built":1952,"rent":2130.0,"rentdate":"2022/09/13","encumbered":"No","status":"Rented","slug":"4149-la-salle-ave","owner":"Smith S A Trust Smith Family Trust","email":"","section":"No","sfr_exempt":false,"perc_increase":0.0,"date_problem":false,"unit_problem":false,"address_problem":true,"registered":true,"multiple_owners":false}},{"type":"Feature","geometry":{"type":"Point","coordinates":[-118.390022,34.005992]},"properties":{"address":"4925 Indian Wood Rd","unit":"477","beds":1,"baths":1.0,"built":1974,"rent":1600.0,"rentdate":"2022/09/12","encumbered":"No","status":"Rented","slug":"4925-indian-wood-rd","owner":"Luppino, Beatriz R","email":"","section":"No","sfr_exempt":true,"perc_increase":0.0,"date_problem":false,"unit_problem":false,"address_problem":false,"registered":true,"multiple_owners":false}},{"type":"Feature","geometry":{"type":"Point","coordinates":[-118.42263,33.997332]},"properties":{"address":"12022 Washington Blvd","unit":"12022-1","beds":0,"baths":1.0,"built":1947,"rent":844.0,"rentdate":"2022/09/12","encumbered":"No","status":"Rented","slug":"12022-washington-blvd","owner":"Mavadat, Michael","email":"mmmavadat@gmail.com","section":"No","sfr_exempt":false,"perc_increase":0.0,"date_problem":false,"unit_problem":false,"address_problem":false,"registered":true,"multiple_owners":true}},{"type":"Feature","geometry":{"type":"Point","coordinates":[-118.42263,33.997332]},"properties":{"address":"12022 Washington Blvd","unit":"12022-3","beds":0,"baths":1.0,"built":1947,"rent":1725.0,"rentdate":"2022/09/12","encumbered":"No","status":"Vacant","slug":"12022-washington-blvd","owner":"Mavadat, Michael","email":"mmmavadat@gmail.com","section":"No","sfr_exempt":false,"perc_increase":null,"date_problem":false,"unit_problem":false,"address_problem":false,"registered":true,"multiple_owners":true}},{"type":"Feature","geometry":{"type":"Point","coordinates":[-118.39255,34.013381]},"properties":{"address":"4269 Revere Pl","unit":"4269","beds":2,"baths":1.0,"built":1952,"rent":1975.0,"rentdate":"2022/09/12","encumbered":"No","status":"Rented","slug":"4269-revere-pl","owner":"Davis, Patricia F","email":"dianndavis77@gmail.com","section":"No","sfr_exempt":false,"perc_increase":0.0,"date_problem":false,"unit_problem":false,"address_problem":false,"registered":true,"multiple_owners":false}},{"type":"Feature","geometry":{"type":"Point","coordinates":[-118.39269,34.013453]},"properties":{"address":"4265 Revere Pl","unit":"4267","beds":2,"baths":1.0,"built":1952,"rent":3255.0,"rentdate":"2022/09/12","encumbered":"No","status":"Rented","slug":"4265-revere-pl","owner":"Davis Daniel Trust D Davis Trust","email":"","section":"No","sfr_exempt":false,"perc_increase":0.05,"date_problem":false,"unit_problem":false,"address_problem":false,"registered":true,"multiple_owners":false}},{"type":"Feature","geometry":{"type":"Point","coordinates":[-118.39269,34.013453]},"properties":{"address":"4265 Revere Pl","unit":"4265","beds":2,"baths":1.0,"built":1952,"rent":3255.0,"rentdate":"2022/09/12","encumbered":"No","status":"Rented","slug":"4265-revere-pl","owner":"Davis Daniel Trust D Davis Trust","email":"","section":"No","sfr_exempt":false,"perc_increase":0.05,"date_problem":false,"unit_problem":false,"address_problem":false,"registered":true,"multiple_owners":false}},{"type":"Feature","geometry":{"type":"Point","coordinates":[-118.42263,33.997332]},"properties":{"address":"12022 Washington Blvd","unit":"12022-4","beds":0,"baths":1.0,"built":1947,"rent":1725.0,"rentdate":"2022/09/12","encumbered":"No","status":"Vacant","slug":"12022-washington-blvd","owner":"Mavadat, Michael","email":"mmmavadat@gmail.com","section":"No","sfr_exempt":false,"perc_increase":null,"date_problem":false,"unit_problem":false,"address_problem":false,"registered":true,"multiple_owners":true}},{"type":"Feature","geometry":{"type":"Point","coordinates":[-118.385139,34.025079]},"properties":{"address":"3583 Wesley St","unit":"1","beds":2,"baths":1.0,"built":1940,"rent":4200.0,"rentdate":"2022/09/12","encumbered":"No","status":"Rented","slug":"3583-wesley-st","owner":"Ruckman, Ruben M","email":"rubenruckman@gmail.com","section":"No","sfr_exempt":true,"perc_increase":0.0,"date_problem":false,"unit_problem":false,"address_problem":false,"registered":true,"multiple_owners":false}},{"type":"Feature","geometry":{"type":"Point","coordinates":[-118.42263,33.997332]},"properties":{"address":"12022 Washington Blvd","unit":"12024-1","beds":0,"baths":1.0,"built":1947,"rent":1725.0,"rentdate":"2022/09/12","encumbered":"No","status":"Vacant","slug":"12022-washington-blvd","owner":"Mavadat, Michael","email":"mmmavadat@gmail.com","section":"No","sfr_exempt":false,"perc_increase":null,"date_problem":false,"unit_problem":false,"address_problem":false,"registered":true,"multiple_owners":true}},{"type":"Feature","geometry":{"type":"Point","coordinates":[-118.382263,34.02613]},"properties":{"address":"3534 Schaefer St","unit":"2","beds":3,"baths":2.0,"built":1978,"rent":3600.0,"rentdate":"2022/09/12","encumbered":"No","status":"Rented","slug":"3534-schaefer-st","owner":"Davis, Daniel","email":"","section":"No","sfr_exempt":false,"perc_increase":0.05913503971756399,"date_problem":false,"unit_problem":false,"address_problem":false,"registered":true,"multiple_owners":false}},{"type":"Feature","geometry":{"type":"Point","coordinates":[-118.382263,34.02613]},"properties":{"address":"3534 Schaefer St","unit":"1","beds":3,"baths":2.0,"built":1978,"rent":3600.0,"rentdate":"2022/09/12","encumbered":"No","status":"Rented","slug":"3534-schaefer-st","owner":"Davis, Daniel","email":"","section":"No","sfr_exempt":false,"perc_increase":-0.058823529411764705,"date_problem":false,"unit_problem":false,"address_problem":false,"registered":true,"multiple_owners":false}},{"type":"Feature","geometry":{"type":"Point","coordinates":[-118.42263,33.997332]},"properties":{"address":"12022 Washington Blvd","unit":"12024-2","beds":0,"baths":1.0,"built":1947,"rent":1725.0,"rentdate":"2022/09/12","encumbered":"No","status":"Vacant","slug":"12022-washington-blvd","owner":"Mavadat, Michael","email":"mmmavadat@gmail.com","section":"No","sfr_exempt":false,"perc_increase":null,"date_problem":false,"unit_problem":false,"address_problem":false,"registered":true,"multiple_owners":true}},{"type":"Feature","geometry":{"type":"Point","coordinates":[-118.399911,33.998878]},"properties":{"address":"5215 Sepulveda Blvd","unit":"16d","beds":3,"baths":2.5,"built":1964,"rent":4000.0,"rentdate":"2022/09/12","encumbered":"No","status":"Rented","slug":"5215-sepulveda-blvd","owner":"Famil, Massingill Charles L Jr Cotrustee Massingill","email":"","section":"No","sfr_exempt":true,"perc_increase":null,"date_problem":false,"unit_problem":false,"address_problem":false,"registered":true,"multiple_owners":true}},{"type":"Feature","geometry":{"type":"Point","coordinates":[-118.392097,34.005286]},"properties":{"address":"11309 Summertime Ln","unit":"11309","beds":1,"baths":1.0,"built":1972,"rent":2150.0,"rentdate":"2022/09/12","encumbered":"No","status":"Rented","slug":"11309-summertime-ln","owner":"Dalessandro, Greg","email":"greg.dalessandro@gmail.com","section":"No","sfr_exempt":true,"perc_increase":0.0,"date_problem":false,"unit_problem":false,"address_problem":false,"registered":true,"multiple_owners":false}},{"type":"Feature","geometry":{"type":"Point","coordinates":[-118.392503,34.019865]},"properties":{"address":"4145 Lafayette Pl","unit":"4145","beds":3,"baths":2.0,"built":1932,"rent":5350.0,"rentdate":"2022/09/12","encumbered":"No","status":"Rented","slug":"4145-lafayette-pl","owner":"Miyamoto, Frances","email":"","section":"No","sfr_exempt":true,"perc_increase":0.028846153846153848,"date_problem":false,"unit_problem":false,"address_problem":false,"registered":true,"multiple_owners":false}},{"type":"Feature","geometry":{"type":"Point","coordinates":[-118.382731,34.024701]},"properties":{"address":"3588 Schaefer St","unit":"3590","beds":1,"baths":1.0,"built":1927,"rent":2250.0,"rentdate":"2022/09/12","encumbered":"No","status":"Rented","slug":"3588-schaefer-st","owner":"Farrage, Tom M","email":"tom@farrage.com","section":"No","sfr_exempt":false,"perc_increase":0.0,"date_problem":false,"unit_problem":false,"address_problem":false,"registered":true,"multiple_owners":false}},{"type":"Feature","geometry":{"type":"Point","coordinates":[-118.394013,34.021229]},"properties":{"address":"4068 Lafayette Pl","unit":"a","beds":2,"baths":1.0,"built":1926,"rent":4150.0,"rentdate":"2022/09/12","encumbered":"No","status":"Rented","slug":"4068-lafayette-pl","owner":"Andersen-Miller, Jon B","email":"jon@jonanderseninteriors.com","section":"No","sfr_exempt":false,"perc_increase":0.10666666666666667,"date_problem":false,"unit_problem":false,"address_problem":false,"registered":true,"multiple_owners":false}},{"type":"Feature","geometry":{"type":"Point","coordinates":[-118.394013,34.021229]},"properties":{"address":"4068 Lafayette Pl","unit":"b","beds":2,"baths":2.0,"built":1926,"rent":3400.0,"rentdate":"2022/09/12","encumbered":"No","status":"Rented","slug":"4068-lafayette-pl","owner":"Andersen-Miller, Jon B","email":"jon@jonanderseninteriors.com","section":"No","sfr_exempt":false,"perc_increase":0.046153846153846156,"date_problem":false,"unit_problem":false,"address_problem":false,"registered":true,"multiple_owners":false}},{"type":"Feature","geometry":{"type":"Point","coordinates":[-118.394013,34.021229]},"properties":{"address":"4068 Lafayette Pl","unit":"c","beds":2,"baths":1.0,"built":1926,"rent":4250.0,"rentdate":"2022/09/12","encumbered":"No","status":"Rented","slug":"4068-lafayette-pl","owner":"Andersen-Miller, Jon B","email":"jon@jonanderseninteriors.com","section":"No","sfr_exempt":false,"perc_increase":0.06918238993710692,"date_problem":false,"unit_problem":false,"address_problem":false,"registered":true,"multiple_owners":false}},{"type":"Feature","geometry":{"type":"Point","coordinates":[-118.42263,33.997332]},"properties":{"address":"12022 Washington Blvd","unit":"12024-4","beds":0,"baths":1.0,"built":1947,"rent":0.0,"rentdate":"2022/09/12","encumbered":"No","status":"Vacant","slug":"12022-washington-blvd","owner":"Mavadat, Michael","email":"mmmavadat@gmail.com","section":"No","sfr_exempt":false,"perc_increase":null,"date_problem":false,"unit_problem":false,"address_problem":false,"registered":true,"multiple_owners":true}},{"type":"Feature","geometry":{"type":"Point","coordinates":[-118.396409,34.017504]},"properties":{"address":"4075 La Salle Ave","unit":"d","beds":1,"baths":1.0,"built":1941,"rent":2200.0,"rentdate":"2022/09/12","encumbered":"No","status":"Rented","slug":"4075-la-salle-ave","owner":"Mcdonald, Sofia","email":"","section":"No","sfr_exempt":false,"perc_increase":0.047619047619047616,"date_problem":false,"unit_problem":false,"address_problem":false,"registered":true,"multiple_owners":false}},{"type":"Feature","geometry":{"type":"Point","coordinates":[-118.434279,33.996224]},"properties":{"address":"4041 Wade St","unit":"5","beds":3,"baths":3.0,"built":1987,"rent":4950.0,"rentdate":"2022/09/12","encumbered":"No","status":"Rented","slug":"4041-wade-st","owner":"Maslon, Marny","email":"marny.maslon@gmail.com","section":"No","sfr_exempt":false,"perc_increase":0.0,"date_problem":false,"unit_problem":false,"address_problem":true,"registered":true,"multiple_owners":false}},{"type":"Feature","geometry":{"type":"Point","coordinates":[-118.434279,33.996224]},"properties":{"address":"4041 Wade St","unit":"4","beds":3,"baths":3.0,"built":1987,"rent":4850.0,"rentdate":"2022/09/12","encumbered":"No","status":"Rented","slug":"4041-wade-st","owner":"Maslon, Marny","email":"marny.maslon@gmail.com","section":"No","sfr_exempt":false,"perc_increase":0.043010752688172046,"date_problem":false,"unit_problem":true,"address_problem":true,"registered":true,"multiple_owners":false}},{"type":"Feature","geometry":{"type":"Point","coordinates":[-118.396409,34.017504]},"properties":{"address":"4075 La Salle Ave","unit":"b","beds":1,"baths":1.0,"built":1939,"rent":2100.0,"rentdate":"2022/09/12","encumbered":"No","status":"Rented","slug":"4075-la-salle-ave","owner":"Mcdonald, Sofia","email":"","section":"No","sfr_exempt":false,"perc_increase":0.75,"date_problem":false,"unit_problem":false,"address_problem":false,"registered":true,"multiple_owners":false}},{"type":"Feature","geometry":{"type":"Point","coordinates":[-118.396409,34.017504]},"properties":{"address":"4075 La Salle Ave","unit":"c","beds":1,"baths":1.0,"built":1939,"rent":2500.0,"rentdate":"2022/09/12","encumbered":"No","status":"Vacant","slug":"4075-la-salle-ave","owner":"Mcdonald, Sofia","email":"","section":"No","sfr_exempt":false,"perc_increase":1.2727272727272727,"date_problem":false,"unit_problem":false,"address_problem":false,"registered":true,"multiple_owners":false}},{"type":"Feature","geometry":{"type":"Point","coordinates":[-118.434279,33.996224]},"properties":{"address":"4041 Wade St","unit":"3","beds":3,"baths":3.0,"built":1987,"rent":4725.0,"rentdate":"2022/09/12","encumbered":"No","status":"Rented","slug":"4041-wade-st","owner":"Maslon, Marny","email":"marny.maslon@gmail.com","section":"No","sfr_exempt":false,"perc_increase":0.05,"date_problem":false,"unit_problem":false,"address_problem":true,"registered":true,"multiple_owners":false}},{"type":"Feature","geometry":{"type":"Point","coordinates":[-118.434279,33.996224]},"properties":{"address":"4041 Wade St","unit":"2","beds":4,"baths":4.0,"built":1987,"rent":5500.0,"rentdate":"2022/09/12","encumbered":"No","status":"Rented","slug":"4041-wade-st","owner":"Maslon, Marny","email":"marny.maslon@gmail.com","section":"No","sfr_exempt":false,"perc_increase":0.0,"date_problem":false,"unit_problem":false,"address_problem":true,"registered":true,"multiple_owners":false}},{"type":"Feature","geometry":{"type":"Point","coordinates":[-118.382082,34.02623]},"properties":{"address":"3530 Schaefer St","unit":"a","beds":3,"baths":2.0,"built":1974,"rent":3362.78,"rentdate":"2022/09/12","encumbered":"No","status":"Rented","slug":"3530-schaefer-st","owner":"Farrage, Tom","email":"tom@farrage.com","section":"No","sfr_exempt":false,"perc_increase":0.0,"date_problem":false,"unit_problem":false,"address_problem":false,"registered":true,"multiple_owners":false}},{"type":"Feature","geometry":{"type":"Point","coordinates":[-118.434279,33.996224]},"properties":{"address":"4041 Wade St","unit":"1","beds":3,"baths":2.0,"built":1938,"rent":2500.0,"rentdate":"2022/09/12","encumbered":"No","status":"Rented","slug":"4041-wade-st","owner":"Maslon, Marny","email":"marny.maslon@gmail.com","section":"No","sfr_exempt":false,"perc_increase":-0.2857142857142857,"date_problem":false,"unit_problem":false,"address_problem":true,"registered":true,"multiple_owners":false}},{"type":"Feature","geometry":{"type":"Point","coordinates":[-118.42263,33.997332]},"properties":{"address":"12022 Washington Blvd","unit":"12024-3","beds":0,"baths":1.0,"built":1947,"rent":799.0,"rentdate":"2022/09/12","encumbered":"No","status":"Rented","slug":"12022-washington-blvd","owner":"Mavadat, Michael","email":"mmmavadat@gmail.com","section":"No","sfr_exempt":false,"perc_increase":0.0,"date_problem":false,"unit_problem":false,"address_problem":false,"registered":true,"multiple_owners":true}},{"type":"Feature","geometry":{"type":"Point","coordinates":[-118.386485,33.980515]},