{"type":"FeatureCollection","features":[{"type":"Feature","geometry":{"type":"Point","coordinates":[-118.417401,34.000623]},"properties":{"address":"11605 WASHINGTON BLVD","unit":"D","beds":1,"baths":1.0,"built":1954,"rent":2395.0,"rentdate":"2023/02/06","encumbered":"No","status":"Rented","slug":"11605-washington-blvd","owner":"TOMINAGE, KIMBERLY ","email":null,"section":"No","registered":true}},{"type":"Feature","geometry":{"type":"Point","coordinates":[-118.417401,34.000623]},"properties":{"address":"11605 WASHINGTON BLVD","unit":"A","beds":2,"baths":1.0,"built":1954,"rent":2605.0,"rentdate":"2023/02/06","encumbered":"No","status":"Rented","slug":"11605-washington-blvd","owner":"TOMINAGE, KIMBERLY ","email":null,"section":"No","registered":true}},{"type":"Feature","geometry":{"type":"Point","coordinates":[-118.417401,34.000623]},"properties":{"address":"11605 WASHINGTON BLVD","unit":"B","beds":1,"baths":1.0,"built":1954,"rent":2545.0,"rentdate":"2023/02/06","encumbered":"No","status":"Rented","slug":"11605-washington-blvd","owner":"TOMINAGA, KIMBERLY ","email":"meadowlarkmgmt@gmail.com","section":"No","registered":true}},{"type":"Feature","geometry":{"type":"Point","coordinates":[-118.417401,34.000623]},"properties":{"address":"11605 WASHINGTON BLVD","unit":"C","beds":2,"baths":1.0,"built":1954,"rent":2650.0,"rentdate":"2023/02/06","encumbered":"No","status":"Rented","slug":"11605-washington-blvd","owner":"TOMINAGA, KIMBERLY ","email":"meadowlarkmgmt@gmail.com","section":"No","registered":true}},{"type":"Feature","geometry":{"type":"Point","coordinates":[-118.380003,33.988675]},"properties":{"address":"5634 CANTERBURY DR","unit":5634,"beds":2,"baths":2.5,"built":1984,"rent":4500.0,"rentdate":"2023/02/04","encumbered":"No","status":"Vacant","slug":"5634-canterbury-dr","owner":"SAMPSON, STEPHEN ","email":null,"section":"No","registered":true}},{"type":"Feature","geometry":{"type":"Point","coordinates":[-118.390507,34.021122]},"properties":{"address":"4069 VAN BUREN PL","unit":4069,"beds":1,"baths":1.0,"built":1949,"rent":1596.5,"rentdate":"2023/02/02","encumbered":"No","status":"Rented","slug":"4069-van-buren-pl","owner":"ENTERPRISES, CORUNA INVESTMENT ","email":null,"section":"No","registered":true}},{"type":"Feature","geometry":{"type":"Point","coordinates":[-118.390507,34.021122]},"properties":{"address":"4069 VAN BUREN PL","unit":4071,"beds":1,"baths":1.0,"built":1949,"rent":1699.5,"rentdate":"2023/02/02","encumbered":"No","status":"Rented","slug":"4069-van-buren-pl","owner":"ENTERPRISES, CORUNA INVESTMENT ","email":null,"section":"No","registered":true}},{"type":"Feature","geometry":{"type":"Point","coordinates":[-118.407382,34.008456]},"properties":{"address":"11003 CULVER BLVD","unit":11003,"beds":1,"baths":1.0,"built":1954,"rent":0.0,"rentdate":"2023/02/02","encumbered":"No","status":"Vacant","slug":"11003-culver-blvd","owner":"HENDERSON, SANDRA A","email":null,"section":"No","registered":true}},{"type":"Feature","geometry":{"type":"Point","coordinates":[-118.390507,34.021122]},"properties":{"address":"4069 VAN BUREN PL","unit":4073,"beds":1,"baths":1.0,"built":1949,"rent":2163.0,"rentdate":"2023/02/02","encumbered":"No","status":"Rented","slug":"4069-van-buren-pl","owner":"ENTERPRISES, CORUNA INVESTMENT ","email":null,"section":"No","registered":true}},{"type":"Feature","geometry":{"type":"Point","coordinates":[-118.411556,34.008371]},"properties":{"address":"4116 CENTER ST","unit":1,"beds":3,"baths":2.0,"built":1950,"rent":2500.0,"rentdate":"2023/02/02","encumbered":"No","status":"Rented","slug":"4116-center-st","owner":"YOURGAS, MICHAEL G","email":"ritchiewilliams13@hotmail.com","section":"No","registered":true}},{"type":"Feature","geometry":{"type":"Point","coordinates":[-118.404205,33.992386]},"properties":{"address":"5195 DAWES AVE","unit":1,"beds":3,"baths":1.0,"built":1951,"rent":4900.0,"rentdate":"2023/02/02","encumbered":"No","status":"Rented","slug":"5195-dawes-ave","owner":"KWASNICKI, KELLY ","email":"kellykwasnicki@yahoo.com","section":"No","registered":true}},{"type":"Feature","geometry":{"type":"Point","coordinates":[-118.407382,34.008456]},"properties":{"address":"11003 CULVER BLVD","unit":11007,"beds":2,"baths":2.0,"built":1954,"rent":1700.0,"rentdate":"2023/02/02","encumbered":"No","status":"Rented","slug":"11003-culver-blvd","owner":"HENDERSON, SANDRA A","email":null,"section":"No","registered":true}},{"type":"Feature","geometry":{"type":"Point","coordinates":[-118.407382,34.008456]},"properties":{"address":"11003 CULVER BLVD","unit":11005,"beds":1,"baths":1.0,"built":1954,"rent":1600.0,"rentdate":"2023/02/02","encumbered":"No","status":"Rented","slug":"11003-culver-blvd","owner":"HENDERSON, SANDRA A","email":null,"section":"No","registered":true}},{"type":"Feature","geometry":{"type":"Point","coordinates":[-118.393633,34.016698]},"properties":{"address":"4174 LA SALLE AVE","unit":2,"beds":3,"baths":2.0,"built":1977,"rent":4017.0,"rentdate":"2023/01/31","encumbered":"No","status":"Rented","slug":"4174-la-salle-ave","owner":"4174 LASALLE, LLC ","email":"loribc2@gmail.com","section":"No","registered":true}},{"type":"Feature","geometry":{"type":"Point","coordinates":[-118.393633,34.016698]},"properties":{"address":"4174 LA SALLE AVE","unit":1,"beds":3,"baths":2.0,"built":1977,"rent":4800.0,"rentdate":"2023/01/31","encumbered":"No","status":"Rented","slug":"4174-la-salle-ave","owner":"4174 LASALLE, LLC ","email":"loribc2@gmail.com","section":"No","registered":true}},{"type":"Feature","geometry":{"type":"Point","coordinates":[-118.40635,34.008569]},"properties":{"address":"10982 CULVER BLVD","unit":10986,"beds":2,"baths":1.0,"built":1951,"rent":3000.0,"rentdate":"2023/01/31","encumbered":"No","status":"Rented","slug":"10982-culver-blvd","owner":"REES III, JOHN D","email":"john.rees.iii@gmail.com","section":"No","registered":true}},{"type":"Feature","geometry":{"type":"Point","coordinates":[-118.40635,34.008569]},"properties":{"address":"10982 CULVER BLVD","unit":10982,"beds":1,"baths":1.0,"built":1951,"rent":2250.0,"rentdate":"2023/01/31","encumbered":"No","status":"Rented","slug":"10982-culver-blvd","owner":"REES III, JOHN D","email":"john.rees.iii@gmail.com","section":"No","registered":true}},{"type":"Feature","geometry":{"type":"Point","coordinates":[-118.39528,34.016351]},"properties":{"address":"4140 BALDWIN AVE","unit":"B","beds":2,"baths":2.0,"built":1964,"rent":4500.0,"rentdate":"2023/01/27","encumbered":"No","status":"Rented","slug":"4140-baldwin-ave","owner":"BRATT, MARK D","email":"markbratt5@hotmail.com","section":"No","registered":true}},{"type":"Feature","geometry":{"type":"Point","coordinates":[-118.391526,34.015616]},"properties":{"address":"4254 LA SALLE AVE","unit":4256,"beds":3,"baths":1.0,"built":1957,"rent":1275.0,"rentdate":"2023/01/26","encumbered":"No","status":"Rented","slug":"4254-la-salle-ave","owner":"HUNTER, GARRETT ","email":"garrettehunter@gmail.com","section":"No","registered":true}},{"type":"Feature","geometry":{"type":"Point","coordinates":[-118.390836,34.018975]},"properties":{"address":"4209 LAFAYETTE PL","unit":4209,"beds":2,"baths":1.0,"built":1957,"rent":2995.0,"rentdate":"2023/01/21","encumbered":"No","status":"Rented","slug":"4209-lafayette-pl","owner":"KARCHIN, JEF ","email":"jef@karchin.com","section":"No","registered":true}},{"type":"Feature","geometry":{"type":"Point","coordinates":[-118.386103,33.98221]},"properties":{"address":"5625 GREEN VALLEY CIR","unit":108,"beds":2,"baths":2.0,"built":1969,"rent":3195.0,"rentdate":"2023/01/20","encumbered":"No","status":"Rented","slug":"5625-green-valley-cir","owner":"FANG, GUAN CHENG ","email":"cyrilfdd@gmail.com","section":"No","registered":true}},{"type":"Feature","geometry":{"type":"Point","coordinates":[-118.384352,34.024499]},"properties":{"address":"3603 HELMS AVE","unit":"3603A","beds":1,"baths":1.0,"built":2022,"rent":2750.0,"rentdate":"2023/01/20","encumbered":"No","status":"Rented","slug":"3603-helms-ave","owner":"FACHER , MARYLOU ","email":"maryloufacher@verizon.net","section":"No","registered":true}},{"type":"Feature","geometry":{"type":"Point","coordinates":[-118.390656,34.003236]},"properties":{"address":"5124 MAYTIME LN","unit":5124,"beds":2,"baths":2.0,"built":1978,"rent":3399.0,"rentdate":"2023/01/19","encumbered":"No","status":"Rented","slug":"5124-maytime-ln","owner":"POLINGER, MELANIE S","email":"melaniepolinger@gmail.com","section":"No","registered":true}},{"type":"Feature","geometry":{"type":"Point","coordinates":[-118.396152,34.020199]},"properties":{"address":"4024 LINCOLN AVE","unit":4026,"beds":1,"baths":1.0,"built":1940,"rent":1188.0,"rentdate":"2023/01/18","encumbered":"No","status":"Rented","slug":"4024-lincoln-ave","owner":"KAUFMAN, TRUSTEE, SCOTT ","email":"dana@srkproperties.com","section":"No","registered":true}},{"type":"Feature","geometry":{"type":"Point","coordinates":[-118.396152,34.020199]},"properties":{"address":"4024 LINCOLN AVE","unit":4028,"beds":2,"baths":1.0,"built":1940,"rent":1900.0,"rentdate":"2023/01/18","encumbered":"No","status":"Rented","slug":"4024-lincoln-ave","owner":"KAUFMAN, TRUSTEE, SCOTT ","email":"dana@srkproperties.com","section":"No","registered":true}},{"type":"Feature","geometry":{"type":"Point","coordinates":[-118.396152,34.020199]},"properties":{"address":"4024 LINCOLN AVE","unit":4024,"beds":1,"baths":1.0,"built":1940,"rent":1100.0,"rentdate":"2023/01/18","encumbered":"No","status":"Rented","slug":"4024-lincoln-ave","owner":"KAUFMAN, TRUSTEE, SCOTT ","email":"dana@srkproperties.com","section":"No","registered":true}},{"type":"Feature","geometry":{"type":"Point","coordinates":[-118.419352,34.01069]},"properties":{"address":"3823 SAWTELLE BLVD.","unit":3825,"beds":2,"baths":1.0,"built":1952,"rent":2800.0,"rentdate":"2023/01/14","encumbered":"No","status":"Rented","slug":"3823-sawtelle-blvd","owner":"CHANG, VICTORIA ","email":"changvictoria@gmail.com","section":"No","registered":true}},{"type":"Feature","geometry":{"type":"Point","coordinates":[-118.419352,34.01069]},"properties":{"address":"3823 SAWTELLE BLVD.","unit":3823.5,"beds":1,"baths":1.0,"built":1952,"rent":1960.0,"rentdate":"2023/01/14","encumbered":"No","status":"Rented","slug":"3823-sawtelle-blvd","owner":"CHANG, VICTORIA ","email":"changvictoria@gmail.com","section":"No","registered":true}},{"type":"Feature","geometry":{"type":"Point","coordinates":[-118.419352,34.01069]},"properties":{"address":"3823 SAWTELLE BLVD.","unit":3823,"beds":1,"baths":1.0,"built":1952,"rent":2000.0,"rentdate":"2023/01/14","encumbered":"No","status":"Rented","slug":"3823-sawtelle-blvd","owner":"CHANG, VICTORIA ","email":"changvictoria@gmail.com","section":"No","registered":true}},{"type":"Feature","geometry":{"type":"Point","coordinates":[-118.419352,34.01069]},"properties":{"address":"3823 SAWTELLE BLVD.","unit":3825.5,"beds":2,"baths":1.0,"built":1952,"rent":2415.0,"rentdate":"2023/01/14","encumbered":"No","status":"Rented","slug":"3823-sawtelle-blvd","owner":"CHANG, VICTORIA ","email":"changvictoria@gmail.com","section":"No","registered":true}},{"type":"Feature","geometry":{"type":"Point","coordinates":[-118.390782,34.00608]},"properties":{"address":"4919 INDIAN WOOD RD","unit":397,"beds":2,"baths":1.0,"built":1973,"rent":2795.0,"rentdate":"2023/01/13","encumbered":"No","status":"Vacant","slug":"4919-indian-wood-rd","owner":"GRUMBER, ORA H","email":null,"section":"No","registered":true}},{"type":"Feature","geometry":{"type":"Point","coordinates":[-118.383225,33.984788]},"properties":{"address":"5651 SUMNER WAY","unit":303,"beds":1,"baths":1.0,"built":1968,"rent":2795.0,"rentdate":"2023/01/13","encumbered":"No","status":"Rented","slug":"5651-sumner-way","owner":"RAMOS, ELFRIDA ","email":"fridarh@gmail.com","section":"No","registered":true}},{"type":"Feature","geometry":{"type":"Point","coordinates":[-118.39072,34.006863]},"properties":{"address":"4824 HOLLOW CORNER RD","unit":260,"beds":3,"baths":2.0,"built":1973,"rent":3495.0,"rentdate":"2023/01/13","encumbered":"No","status":"Rented","slug":"4824-hollow-corner-rd","owner":"GRUMBERG, JEAN P","email":null,"section":"No","registered":true}},{"type":"Feature","geometry":{"type":"Point","coordinates":[-118.383918,34.025538]},"properties":{"address":"3563 HELMS AVE","unit":2,"beds":3,"baths":2.0,"built":1964,"rent":3750.0,"rentdate":"2023/01/11","encumbered":"No","status":"Rented","slug":"3563-helms-ave","owner":"3563 HELMS, LLC","email":"loribc2@gmail.com","section":"No","registered":true}},{"type":"Feature","geometry":{"type":"Point","coordinates":[-118.383918,34.025538]},"properties":{"address":"3563 HELMS AVE","unit":1,"beds":3,"baths":2.5,"built":1964,"rent":4150.0,"rentdate":"2023/01/11","encumbered":"No","status":"Rented","slug":"3563-helms-ave","owner":"3563 HELMS, LLC","email":"loribc2@gmail.com","section":"No","registered":true}},{"type":"Feature","geometry":{"type":"Point","coordinates":[-118.391658,33.989407]},"properties":{"address":"8007 HANNUM AVE","unit":8007,"beds":2,"baths":2.5,"built":1998,"rent":4300.0,"rentdate":"2023/01/11","encumbered":"No","status":"Rented","slug":"8007-hannum-ave","owner":"DEAVENS, EDNA RENEE ","email":"deavense@bellsouth.net","section":"No","registered":true}},{"type":"Feature","geometry":{"type":"Point","coordinates":[-118.392955,34.017921]},"properties":{"address":"4171 LINCOLN AVE","unit":4173,"beds":2,"baths":1.0,"built":1923,"rent":2700.0,"rentdate":"2023/01/10","encumbered":"No","status":"Rented","slug":"4171-lincoln-ave","owner":"BROWN, NANCIE ","email":"nancie@nanciebrown.com","section":"No","registered":true}},{"type":"Feature","geometry":{"type":"Point","coordinates":[-118.392955,34.017921]},"properties":{"address":"4171 LINCOLN AVE","unit":4173.5,"beds":2,"baths":1.0,"built":1923,"rent":2000.0,"rentdate":"2023/01/10","encumbered":"No","status":"Rented","slug":"4171-lincoln-ave","owner":"BROWN, NANCIE ","email":"nancie@nanciebrown.com","section":"No","registered":true}},{"type":"Feature","geometry":{"type":"Point","coordinates":[-118.409863,34.016097]},"properties":{"address":"3827 SPAD PL","unit":1,"beds":2,"baths":1.0,"built":1947,"rent":2950.0,"rentdate":"2023/01/10","encumbered":"No","status":"Rented","slug":"3827-spad-pl","owner":"FITZPATRICK, JOHN K","email":null,"section":"No","registered":true}},{"type":"Feature","geometry":{"type":"Point","coordinates":[-118.392955,34.017921]},"properties":{"address":"4171 LINCOLN AVE","unit":4171,"beds":1,"baths":1.0,"built":1923,"rent":2900.0,"rentdate":"2023/01/10","encumbered":"No","status":"Rented","slug":"4171-lincoln-ave","owner":"BROWN, NANCIE ","email":"nancie@nanciebrown.com","section":"No","registered":true}},{"type":"Feature","geometry":{"type":"Point","coordinates":[-118.416891,34.006681]},"properties":{"address":"11320 WASHINGTON PL","unit":"A","beds":2,"baths":1.0,"built":1950,"rent":1493.5,"rentdate":"2023/01/09","encumbered":"No","status":"Rented","slug":"11320-washington-pl","owner":"ENGLAND JOHN H AND CAROL A TRUST JOHN AND CAROL EN","email":null,"section":"No","registered":true}},{"type":"Feature","geometry":{"type":"Point","coordinates":[-118.416891,34.006681]},"properties":{"address":"11320 WASHINGTON PL","unit":"B","beds":2,"baths":1.0,"built":1950,"rent":2595.0,"rentdate":"2023/01/09","encumbered":"No","status":"Rented","slug":"11320-washington-pl","owner":"ENGLAND JOHN H AND CAROL A TRUST JOHN AND CAROL EN","email":null,"section":"No","registered":true}},{"type":"Feature","geometry":{"type":"Point","coordinates":[-118.416891,34.006681]},"properties":{"address":"11320 WASHINGTON PL","unit":"D","beds":2,"baths":1.0,"built":1950,"rent":2295.0,"rentdate":"2023/01/09","encumbered":"No","status":"Rented","slug":"11320-washington-pl","owner":"ENGLAND JOHN H AND CAROL A TRUST JOHN AND CAROL EN","email":null,"section":"No","registered":true}},{"type":"Feature","geometry":{"type":"Point","coordinates":[-118.416891,34.006681]},"properties":{"address":"11320 WASHINGTON PL","unit":"C","beds":2,"baths":1.0,"built":1950,"rent":2250.0,"rentdate":"2023/01/09","encumbered":"No","status":"Rented","slug":"11320-washington-pl","owner":"ENGLAND JOHN H AND CAROL A TRUST JOHN AND CAROL EN","email":null,"section":"No","registered":true}},{"type":"Feature","geometry":{"type":"Point","coordinates":[-118.409383,34.009595]},"properties":{"address":"4077 HURON AVE","unit":"4077 Huron","beds":3,"baths":2.0,"built":1957,"rent":4725.0,"rentdate":"2023/01/05","encumbered":"No","status":"Rented","slug":"4077-huron-ave","owner":"SIKDER, SADIKUR ","email":null,"section":"No","registered":true}},{"type":"Feature","geometry":{"type":"Point","coordinates":[-118.391411,34.007643]},"properties":{"address":"4804 HOLLOW CORNER RD","unit":226,"beds":2,"baths":2.0,"built":1973,"rent":2950.0,"rentdate":"2023/01/05","encumbered":"No","status":"Rented","slug":"4804-hollow-corner-rd","owner":"PROFENIUS, ELLA ","email":"ella.lan16@gmail.com","section":"No","registered":true}},{"type":"Feature","geometry":{"type":"Point","coordinates":[-118.394981,34.017277]},"properties":{"address":"4132 LA SALLE AVE","unit":4132,"beds":2,"baths":2.0,"built":1991,"rent":4550.0,"rentdate":"2023/01/04","encumbered":"No","status":"Rented","slug":"4132-la-salle-ave","owner":"CHU, THOMAS S","email":"tchuster@gmail.com","section":"No","registered":true}},{"type":"Feature","geometry":{"type":"Point","coordinates":[-118.383964,33.983801]},"properties":{"address":"6124 BUCKINGHAM PKWY","unit":408,"beds":2,"baths":2.0,"built":1968,"rent":2600.0,"rentdate":"2023/01/03","encumbered":"No","status":"Rented","slug":"6124-buckingham-pkwy","owner":"CURRY, TRACY ","email":"latracy@hotmail.com","section":"No","registered":true}},{"type":"Feature","geometry":{"type":"Point","coordinates":[-118.391818,34.0147]},"properties":{"address":"4264 BALDWIN AVE","unit":4266,"beds":2,"baths":1.0,"built":1949,"rent":2415.0,"rentdate":"2022/12/29","encumbered":"No","status":"Rented","slug":"4264-baldwin-ave","owner":"FAMILY TRUST, THE JOSEPH M GEREZ ","email":null,"section":"No","registered":true}},{"type":"Feature","geometry":{"type":"Point","coordinates":[-118.391818,34.0147]},"properties":{"address":"4264 BALDWIN AVE","unit":4264,"beds":2,"baths":1.0,"built":1949,"rent":2940.0,"rentdate":"2022/12/29","encumbered":"No","status":"Rented","slug":"4264-baldwin-ave","owner":"FAMILY TRUST, THE JOSEPH M GEREZ ","email":null,"section":"No","registered":true}},{"type":"Feature","geometry":{"type":"Point","coordinates":[-118.416922,34.000676]},"properties":{"address":"11529 WASHINGTON BLVD","unit":11537,"beds":2,"baths":1.0,"built":1953,"rent":1895.0,"rentdate":"2022/12/26","encumbered":"No","status":"Vacant","slug":"11529-washington-blvd","owner":"BHUTA, SUNIL ","email":null,"section":"No","registered":true}},{"type":"Feature","geometry":{"type":"Point","coordinates":[-118.416922,34.000676]},"properties":{"address":"11529 WASHINGTON BLVD","unit":11529,"beds":2,"baths":1.0,"built":1953,"rent":2425.0,"rentdate":"2022/12/26","encumbered":"No","status":"Rented","slug":"11529-washington-blvd","owner":"BHUTA, SUNIL ","email":null,"section":"No","registered":true}},{"type":"Feature","geometry":{"type":"Point","coordinates":[-118.416922,34.000676]},"properties":{"address":"11529 WASHINGTON BLVD","unit":11535,"beds":2,"baths":1.0,"built":1953,"rent":1980.0,"rentdate":"2022/12/26","encumbered":"No","status":"Rented","slug":"11529-washington-blvd","owner":"BHUTA, SUNIL ","email":null,"section":"No","registered":true}},{"type":"Feature","geometry":{"type":"Point","coordinates":[-118.416922,34.000676]},"properties":{"address":"11529 WASHINGTON BLVD","unit":11531,"beds":2,"baths":1.0,"built":1953,"rent":1980.0,"rentdate":"2022/12/26","encumbered":"No","status":"Rented","slug":"11529-washington-blvd","owner":"BHUTA, SUNIL ","email":null,"section":"No","registered":true}},{"type":"Feature","geometry":{"type":"Point","coordinates":[-118.416922,34.000676]},"properties":{"address":"11529 WASHINGTON BLVD","unit":11533,"beds":2,"baths":1.0,"built":1953,"rent":2395.0,"rentdate":"2022/12/26","encumbered":"No","status":"Rented","slug":"11529-washington-blvd","owner":"BHUTA, SUNIL ","email":null,"section":"No","registered":true}},{"type":"Feature","geometry":{"type":"Point","coordinates":[-118.41387,34.01275]},"properties":{"address":"3859 TILDEN AVE","unit":4,"beds":1,"baths":1.0,"built":1956,"rent":1905.0,"rentdate":"2022/12/23","encumbered":"No","status":"Rented","slug":"3859-tilden-ave","owner":"SPANDER, ELIZABETH ","email":null,"section":"No","registered":true}},{"type":"Feature","geometry":{"type":"Point","coordinates":[-118.41387,34.01275]},"properties":{"address":"3859 TILDEN AVE","unit":1,"beds":1,"baths":1.0,"built":1956,"rent":952.99,"rentdate":"2022/12/23","encumbered":"No","status":"Rented","slug":"3859-tilden-ave","owner":"SPANDER, ELIZABETH ","email":null,"section":"No","registered":true}},{"type":"Feature","geometry":{"type":"Point","coordinates":[-118.41387,34.01275]},"properties":{"address":"3859 TILDEN AVE","unit":5,"beds":1,"baths":1.0,"built":1956,"rent":1236.0,"rentdate":"2022/12/23","encumbered":"No","status":"Rented","slug":"3859-tilden-ave","owner":"SPANDER, ELIZABETH ","email":null,"section":"No","registered":true}},{"type":"Feature","geometry":{"type":"Point","coordinates":[-118.41387,34.01275]},"properties":{"address":"3859 TILDEN AVE","unit":6,"beds":1,"baths":1.0,"built":1956,"rent":1236.0,"rentdate":"2022/12/23","encumbered":"No","status":"Rented","slug":"3859-tilden-ave","owner":"SPANDER, ELIZABETH ","email":null,"section":"No","registered":true}},{"type":"Feature","geometry":{"type":"Point","coordinates":[-118.41387,34.01275]},"properties":{"address":"3859 TILDEN AVE","unit":2,"beds":1,"baths":1.0,"built":1956,"rent":1236.0,"rentdate":"2022/12/23","encumbered":"No","status":"Rented","slug":"3859-tilden-ave","owner":"SPANDER, ELIZABETH ","email":null,"section":"No","registered":true}},{"type":"Feature","geometry":{"type":"Point","coordinates":[-118.41387,34.01275]},"properties":{"address":"3859 TILDEN AVE","unit":7,"beds":2,"baths":1.0,"built":1956,"rent":1360.0,"rentdate":"2022/12/23","encumbered":"No","status":"Rented","slug":"3859-tilden-ave","owner":"SPANDER, ELIZABETH ","email":null,"section":"No","registered":true}},{"type":"Feature","geometry":{"type":"Point","coordinates":[-118.41387,34.01275]},"properties":{"address":"3859 TILDEN AVE","unit":8,"beds":2,"baths":1.0,"built":1956,"rent":1442.0,"rentdate":"2022/12/23","encumbered":"No","status":"Rented","slug":"3859-tilden-ave","owner":"SPANDER, ELIZABETH ","email":null,"section":"No","registered":true}},{"type":"Feature","geometry":{"type":"Point","coordinates":[-118.41387,34.01275]},"properties":{"address":"3859 TILDEN AVE","unit":3,"beds":1,"baths":1.0,"built":1956,"rent":1850.0,"rentdate":"2022/12/23","encumbered":"No","status":"Rented","slug":"3859-tilden-ave","owner":"SPANDER, ELIZABETH ","email":null,"section":"No","registered":true}},{"type":"Feature","geometry":{"type":"Point","coordinates":[-118.390715,34.004125]},"properties":{"address":"13105 SUMMERTIME LN","unit":13105,"beds":1,"baths":1.0,"built":1974,"rent":2475.0,"rentdate":"2022/12/22","encumbered":"No","status":"Rented","slug":"13105-summertime-ln","owner":"NEPOMNASCHY, ERIC ","email":"kellie@cbancorp.com","section":"No","registered":true}},{"type":"Feature","geometry":{"type":"Point","coordinates":[-118.398129,34.008821]},"properties":{"address":"4504 EMERALD WAY","unit":1,"beds":3,"baths":3.0,"built":1991,"rent":5350.0,"rentdate":"2022/12/15","encumbered":"No","status":"Rented","slug":"4504-emerald-way","owner":"GREENAWAY, BRENDAN ","email":null,"section":"No","registered":true}},{"type":"Feature","geometry":{"type":"Point","coordinates":[-118.38382,34.026172]},"properties":{"address":"3541 HELMS AVE","unit":"A","beds":1,"baths":1.0,"built":2019,"rent":2335.0,"rentdate":"2022/12/14","encumbered":"No","status":"Rented","slug":"3541-helms-ave","owner":"ENG, DANA ","email":"erica@ericaeng.com","section":"No","registered":true}},{"type":"Feature","geometry":{"type":"Point","coordinates":[-118.407663,34.009425]},"properties":{"address":"10949 ALETTA AVE","unit":1,"beds":1,"baths":1.0,"built":2015,"rent":2325.0,"rentdate":"2022/12/08","encumbered":"No","status":"Rented","slug":"10949-aletta-ave","owner":"KROWECH, GAIL ","email":"gail.krowech@gmail.com","section":"No","registered":true}},{"type":"Feature","geometry":{"type":"Point","coordinates":[-118.405388,34.018767]},"properties":{"address":"3824 KEYSTONE AVE","unit":8,"beds":1,"baths":1.0,"built":1960,"rent":1200.0,"rentdate":"2022/12/08","encumbered":"No","status":"Rented","slug":"3824-keystone-ave","owner":"HAMADANI, SY ","email":"syhamadani@yahoo.com","section":"No","registered":true}},{"type":"Feature","geometry":{"type":"Point","coordinates":[-118.405388,34.018767]},"properties":{"address":"3824 KEYSTONE AVE","unit":2,"beds":2,"baths":1.5,"built":1960,"rent":3200.0,"rentdate":"2022/12/08","encumbered":"No","status":"Rented","slug":"3824-keystone-ave","owner":"HAMADANI, SY ","email":"syhamadani@yahoo.com","section":"No","registered":true}},{"type":"Feature","geometry":{"type":"Point","coordinates":[-118.405388,34.018767]},"properties":{"address":"3824 KEYSTONE AVE","unit":3,"beds":2,"baths":1.5,"built":1960,"rent":3100.0,"rentdate":"2022/12/08","encumbered":"No","status":"Rented","slug":"3824-keystone-ave","owner":"HAMADANI, SY ","email":"syhamadani@yahoo.com","section":"No","registered":true}},{"type":"Feature","geometry":{"type":"Point","coordinates":[-118.405388,34.018767]},"properties":{"address":"3824 KEYSTONE AVE","unit":4,"beds":3,"baths":2.0,"built":1961,"rent":3975.0,"rentdate":"2022/12/08","encumbered":"No","status":"Rented","slug":"3824-keystone-ave","owner":"HAMADANI, SY ","email":"syhamadani@yahoo.com","section":"No","registered":true}},{"type":"Feature","geometry":{"type":"Point","coordinates":[-118.405388,34.018767]},"properties":{"address":"3824 KEYSTONE AVE","unit":5,"beds":2,"baths":1.5,"built":1961,"rent":3267.0,"rentdate":"2022/12/08","encumbered":"No","status":"Rented","slug":"3824-keystone-ave","owner":"HAMADANI, SY ","email":"syhamadani@yahoo.com","section":"No","registered":true}},{"type":"Feature","geometry":{"type":"Point","coordinates":[-118.405388,34.018767]},"properties":{"address":"3824 KEYSTONE AVE","unit":6,"beds":2,"baths":1.0,"built":1961,"rent":2800.0,"rentdate":"2022/12/08","encumbered":"No","status":"Rented","slug":"3824-keystone-ave","owner":"HAMADANI, SY ","email":"syhamadani@yahoo.com","section":"No","registered":true}},{"type":"Feature","geometry":{"type":"Point","coordinates":[-118.405388,34.018767]},"properties":{"address":"3824 KEYSTONE AVE","unit":1,"beds":1,"baths":1.0,"built":1960,"rent":3100.0,"rentdate":"2022/12/08","encumbered":"No","status":"Rented","slug":"3824-keystone-ave","owner":"HAMADANI, SY ","email":"syhamadani@yahoo.com","section":"No","registered":true}},{"type":"Feature","geometry":{"type":"Point","coordinates":[-118.405388,34.018767]},"properties":{"address":"3824 KEYSTONE AVE","unit":7,"beds":2,"baths":1.0,"built":1960,"rent":3143.0,"rentdate":"2022/12/08","encumbered":"No","status":"Rented","slug":"3824-keystone-ave","owner":"HAMADANI, SY ","email":"syhamadani@yahoo.com","section":"No","registered":true}},{"type":"Feature","geometry":{"type":"Point","coordinates":[-118.395657,34.018255]},"properties":{"address":"4077 MADISON AVE","unit":4079,"beds":1,"baths":1.0,"built":1922,"rent":1650.0,"rentdate":"2022/11/30","encumbered":"No","status":"Rented","slug":"4077-madison-ave","owner":"SHAHIN, MADEHA  ","email":null,"section":"No","registered":true}},{"type":"Feature","geometry":{"type":"Point","coordinates":[-118.385885,33.978718]},"properties":{"address":"6605 GREEN VALLEY CIR","unit":201,"beds":2,"baths":2.0,"built":1970,"rent":0.0,"rentdate":"2022/11/29","encumbered":"No","status":"Vacant","slug":"6605-green-valley-cir","owner":"LANIER, LAURETTE ","email":"preciousmanagementgroup@gmail.com","section":"No","registered":true}},{"type":"Feature","geometry":{"type":"Point","coordinates":[-118.392016,34.005125]},"properties":{"address":"11202 SUMMERTIME LN","unit":11202,"beds":1,"baths":1.0,"built":1973,"rent":2400.0,"rentdate":"2022/11/28","encumbered":"No","status":"Rented","slug":"11202-summertime-ln","owner":"PIGOTT, MICHAEL ","email":"mike.pigott@gmail.com","section":"No","registered":true}},{"type":"Feature","geometry":{"type":"Point","coordinates":[-118.391496,34.005978]},"properties":{"address":"1311 SUMMERTIME LN","unit":1311,"beds":1,"baths":2.0,"built":1973,"rent":3350.0,"rentdate":"2022/11/28","encumbered":"No","status":"Rented","slug":"1311-summertime-ln","owner":"ABDELMALAK, ANTHONY  J","email":null,"section":"No","registered":true}},{"type":"Feature","geometry":{"type":"Point","coordinates":[-118.391537,33.98967]},"properties":{"address":"7415 HANNUM AVE","unit":"7415 Hannu","beds":2,"baths":3.0,"built":1997,"rent":4068.0,"rentdate":"2022/11/21","encumbered":"No","status":"Rented","slug":"7415-hannum-ave","owner":"SMITH JAMES, GWENDOLYNN M","email":null,"section":"No","registered":true}},{"type":"Feature","geometry":{"type":"Point","coordinates":[-118.397575,34.017482]},"properties":{"address":"4051 JACKSON AVE","unit":4,"beds":3,"baths":2.0,"built":1965,"rent":3000.0,"rentdate":"2022/11/11","encumbered":"No","status":"Rented","slug":"4051-jackson-ave","owner":"SALEM, RIFAAT ","email":"1025salem@gmail.com","section":"No","registered":true}},{"type":"Feature","geometry":{"type":"Point","coordinates":[-118.389276,33.982592]},"properties":{"address":"5845 DOVERWOOD DR","unit":206,"beds":2,"baths":2.0,"built":1970,"rent":2800.0,"rentdate":"2022/11/08","encumbered":"No","status":"Rented","slug":"5845-doverwood-dr","owner":"NEILSON, ANDREW S","email":null,"section":"No","registered":true}},{"type":"Feature","geometry":{"type":"Point","coordinates":[-118.432472,33.99295]},"properties":{"address":"4240 MCCONNELL BLVD","unit":4240,"beds":2,"baths":1.0,"built":1938,"rent":3800.0,"rentdate":"2022/11/08","encumbered":"No","status":"Rented","slug":"4240-mcconnell-blvd","owner":"JAMES, C.M. ","email":"Calayus@gmail.com","section":"No","registered":true}},{"type":"Feature","geometry":{"type":"Point","coordinates":[-118.397575,34.017482]},"properties":{"address":"4051 JACKSON AVE","unit":2,"beds":2,"baths":2.0,"built":1965,"rent":1350.0,"rentdate":"2022/11/07","encumbered":"No","status":"Rented","slug":"4051-jackson-ave","owner":"SALEM, RIFAAT ","email":null,"section":"No","registered":true}},{"type":"Feature","geometry":{"type":"Point","coordinates":[-118.397575,34.017482]},"properties":{"address":"4051 JACKSON AVE","unit":1,"beds":2,"baths":2.0,"built":1965,"rent":1495.0,"rentdate":"2022/11/07","encumbered":"No","status":"Rented","slug":"4051-jackson-ave","owner":"SALEM, RIFAAT ","email":null,"section":"No","registered":true}},{"type":"Feature","geometry":{"type":"Point","coordinates":[-118.403952,34.008559]},"properties":{"address":"4319 ELENDA ST","unit":12269,"beds":4,"baths":3.0,"built":1923,"rent":2000.0,"rentdate":"2022/11/04","encumbered":"No","status":"Rented","slug":"4319-elenda-st","owner":"KANG, JUNGSOO ","email":"jsk50@comcast.net","section":"No","registered":true}},{"type":"Feature","geometry":{"type":"Point","coordinates":[-118.413825,34.014414]},"properties":{"address":"3813 HURON AVE","unit":6,"beds":2,"baths":1.75,"built":1971,"rent":1800.0,"rentdate":"2022/11/01","encumbered":"No","status":"Rented","slug":"3813-huron-ave","owner":"DEIONGH, DAWN A","email":"hanunaga53@gmail.com","section":"No","registered":true}},{"type":"Feature","geometry":{"type":"Point","coordinates":[-118.394452,34.018589]},"properties":{"address":"4121 LINCOLN AVE","unit":2,"beds":2,"baths":2.0,"built":0,"rent":3500.0,"rentdate":"2022/10/31","encumbered":"No","status":"Rented","slug":"4121-lincoln-ave","owner":"RIVA, MARY ","email":null,"section":"No","registered":true}},{"type":"Feature","geometry":{"type":"Point","coordinates":[-118.394452,34.018589]},"properties":{"address":"4121 LINCOLN AVE","unit":1,"beds":2,"baths":2.0,"built":1940,"rent":2605.0,"rentdate":"2022/10/31","encumbered":"No","status":"Rented","slug":"4121-lincoln-ave","owner":"RIVA, MARY ","email":null,"section":"No","registered":true}},{"type":"Feature","geometry":{"type":"Point","coordinates":[-118.38601,33.980714]},"properties":{"address":"6345 GREEN VALLEY CIR","unit":1,"beds":3,"baths":2.0,"built":1974,"rent":2805.0,"rentdate":"2022/10/31","encumbered":"No","status":"Rented","slug":"6345-green-valley-cir","owner":"JOSHI, RAMESH U","email":"alaap@hotmail.com","section":"No","registered":true}},{"type":"Feature","geometry":{"type":"Point","coordinates":[-118.415544,34.005293]},"properties":{"address":"4073 SAWTELLE BLVD","unit":4075,"beds":2,"baths":1.0,"built":1949,"rent":1800.0,"rentdate":"2022/10/25","encumbered":"No","status":"Rented","slug":"4073-sawtelle-blvd","owner":"BRANSON, KADIJAH S","email":"kadbrans@gmail.com","section":"No","registered":true}},{"type":"Feature","geometry":{"type":"Point","coordinates":[-118.415544,34.005293]},"properties":{"address":"4073 SAWTELLE BLVD","unit":4077,"beds":1,"baths":1.0,"built":1949,"rent":1450.0,"rentdate":"2022/10/25","encumbered":"No","status":"Rented","slug":"4073-sawtelle-blvd","owner":"BRANSON, KADIJAH S","email":"kadbrans@gmail.com","section":"No","registered":true}},{"type":"Feature","geometry":{"type":"Point","coordinates":[-118.415544,34.005293]},"properties":{"address":"4073 SAWTELLE BLVD","unit":4073,"beds":2,"baths":1.0,"built":1949,"rent":1800.0,"rentdate":"2022/10/25","encumbered":"No","status":"Rented","slug":"4073-sawtelle-blvd","owner":"BRANSON, KADIJAH S","email":"kadbrans@gmail.com","section":"No","registered":true}},{"type":"Feature","geometry":{"type":"Point","coordinates":[-118.415544,34.005293]},"properties":{"address":"4073 SAWTELLE BLVD","unit":4079,"beds":1,"baths":1.0,"built":1949,"rent":1450.0,"rentdate":"2022/10/25","encumbered":"No","status":"Rented","slug":"4073-sawtelle-blvd","owner":"BRANSON, KADIJAH S","email":"kadbrans@gmail.com","section":"No","registered":true}},{"type":"Feature","geometry":{"type":"Point","coordinates":[-118.428807,33.999935]},"properties":{"address":"12224 WASHINGTON BLVD","unit":12226,"beds":3,"baths":1.0,"built":1960,"rent":2500.0,"rentdate":"2022/10/21","encumbered":"No","status":"Rented","slug":"12224-washington-blvd","owner":"BEAL, VICTORIA ","email":"victoriabeal@me.com","section":"No","registered":true}},{"type":"Feature","geometry":{"type":"Point","coordinates":[-118.428807,33.999935]},"properties":{"address":"12224 WASHINGTON BLVD","unit":12224.5,"beds":2,"baths":1.0,"built":1960,"rent":2600.0,"rentdate":"2022/10/21","encumbered":"No","status":"Rented","slug":"12224-washington-blvd","owner":"BEAL, VICTORIA ","email":"victoriabeal@me.com","section":"No","registered":true}},{"type":"Feature","geometry":{"type":"Point","coordinates":[-118.428807,33.999935]},"properties":{"address":"12224 WASHINGTON BLVD","unit":"12224 W.P.","beds":2,"baths":1.0,"built":1960,"rent":2285.0,"rentdate":"2022/10/21","encumbered":"No","status":"Rented","slug":"12224-washington-blvd","owner":"BEAL, VICTORIA ","email":"victoriabeal@me.com","section":"No","registered":true}},{"type":"Feature","geometry":{"type":"Point","coordinates":[-118.428807,33.999935]},"properties":{"address":"12224 WASHINGTON BLVD","unit":12226.5,"beds":3,"baths":1.0,"built":1960,"rent":2336.0,"rentdate":"2022/10/21","encumbered":"No","status":"Rented","slug":"12224-washington-blvd","owner":"BEAL, VICTORIA ","email":"victoriabeal@me.com","section":"No","registered":true}},{"type":"Feature","geometry":{"type":"Point","coordinates":[-118.385096,34.023047]},"properties":{"address":"8647 HIGUERA ST","unit":2,"beds":3,"baths":3.0,"built":0,"rent":5000.0,"rentdate":"2022/10/19","encumbered":"No","status":"Rented","slug":"8647-higuera-st","owner":"NOORVASH, RAMIN ","email":null,"section":"No","registered":true}},{"type":"Feature","geometry":{"type":"Point","coordinates":[-118.382862,34.029134]},"properties":{"address":"3327 CAROLINE AVE","unit":3327,"beds":2,"baths":1.0,"built":1922,"rent":3950.0,"rentdate":"2022/10/19","encumbered":"No","status":"Rented","slug":"3327-caroline-ave","owner":"YAMAMOTO, JILL ","email":"itupelo@gmail.com","section":"No","registered":true}},{"type":"Feature","geometry":{"type":"Point","coordinates":[-118.385096,34.023047]},"properties":{"address":"8647 HIGUERA ST","unit":1,"beds":1,"baths":1.0,"built":0,"rent":2650.0,"rentdate":"2022/10/19","encumbered":"No","status":"Rented","slug":"8647-higuera-st","owner":"NOORVASH, RAMIN ","email":null,"section":"No","registered":true}},{"type":"Feature","geometry":{"type":"Point","coordinates":[-118.382862,34.029134]},"properties":{"address":"3327 CAROLINE AVE","unit":3325,"beds":2,"baths":1.0,"built":2010,"rent":4580.0,"rentdate":"2022/10/19","encumbered":"No","status":"Rented","slug":"3327-caroline-ave","owner":"YAMAMOTO, JILL ","email":"itupelo@gmail.com","section":"No","registered":true}},{"type":"Feature","geometry":{"type":"Point","coordinates":[-118.394076,34.019549]},"properties":{"address":"4109 DUQUESNE AVE","unit":4109,"beds":1,"baths":1.0,"built":1940,"rent":2500.0,"rentdate":"2022/10/15","encumbered":"No","status":"Rented","slug":"4109-duquesne-ave","owner":"E, DROBNICK MOLLY ","email":null,"section":"No","registered":true}},{"type":"Feature","geometry":{"type":"Point","coordinates":[-118.391411,34.007643]},"properties":{"address":"4804 HOLLOW CORNER RD","unit":128,"beds":2,"baths":2.0,"built":1973,"rent":2350.0,"rentdate":"2022/10/06","encumbered":"No","status":"Rented","slug":"4804-hollow-corner-rd","owner":"RIBEIRO, LUCILENE ","email":"lucihills1979@gmail.com","section":"No","registered":true}},{"type":"Feature","geometry":{"type":"Point","coordinates":[-118.383086,34.025367]},"properties":{"address":"3567 SCHAEFER ST","unit":1,"beds":3,"baths":2.0,"built":1929,"rent":3550.0,"rentdate":"2022/10/06","encumbered":"No","status":"Rented","slug":"3567-schaefer-st","owner":"MARCUM, MARK L","email":null,"section":"No","registered":true}},{"type":"Feature","geometry":{"type":"Point","coordinates":[-118.380454,33.986935]},"properties":{"address":"5824 CANTERBURY DR","unit":1,"beds":3,"baths":3.0,"built":1981,"rent":4500.0,"rentdate":"2022/10/04","encumbered":"No","status":"Rented","slug":"5824-canterbury-dr","owner":"FUNG, CATHERINE ","email":"robocat2015@gmail.com","section":"No","registered":true}},{"type":"Feature","geometry":{"type":"Point","coordinates":[-118.388326,34.008223]},"properties":{"address":"5106 HUCK FINN LN","unit":5106,"beds":3,"baths":2.5,"built":1973,"rent":3675.0,"rentdate":"2022/10/03","encumbered":"No","status":"Rented","slug":"5106-huck-finn-ln","owner":"AMIRI GHAEMMAGHAMI, HAMED ","email":"hamirig@gmail.com","section":"No","registered":true}},{"type":"Feature","geometry":{"type":"Point","coordinates":[-118.392133,34.016365]},"properties":{"address":"4223 MADISON AVE","unit":1,"beds":1,"baths":1.0,"built":1923,"rent":0.0,"rentdate":"2022/10/03","encumbered":"No","status":"Vacant","slug":"4223-madison-ave","owner":"CHIN-DICKEY, EMILE ","email":"e.chindickey@gmail.com","section":"No","registered":true}},{"type":"Feature","geometry":{"type":"Point","coordinates":[-118.405288,34.000204]},"properties":{"address":"11214 HUNTLEY PL","unit":1,"beds":3,"baths":2.0,"built":1955,"rent":4995.0,"rentdate":"2022/10/03","encumbered":"No","status":"Rented","slug":"11214-huntley-pl","owner":"KANG, WILLIAM ","email":"bill.kang@gmail.com","section":"No","registered":true}},{"type":"Feature","geometry":{"type":"Point","coordinates":[-118.385571,33.979619]},"properties":{"address":"6505 GREEN VALLEY CIR","unit":211,"beds":2,"baths":2.0,"built":0,"rent":0.0,"rentdate":"2022/10/02","encumbered":"No","status":"Vacant","slug":"6505-green-valley-cir","owner":"JONES SHEDRICK D AND ELLA R TRUST S D AND E R JONE","email":null,"section":"No","registered":true}},{"type":"Feature","geometry":{"type":"Point","coordinates":[-118.38675,33.979373]},"properties":{"address":"6575 GREEN VALLEY CIR","unit":308,"beds":2,"baths":2.0,"built":1965,"rent":1900.0,"rentdate":"2022/09/30","encumbered":"No","status":"Rented","slug":"6575-green-valley-cir","owner":"CHARLES, KARIN E","email":"Karin.charles49@yahoo.com","section":"No","registered":true}},{"type":"Feature","geometry":{"type":"Point","coordinates":[-118.380761,33.986418]},"properties":{"address":"5900 CANTERBURY DR","unit":"A119","beds":2,"baths":1.5,"built":1971,"rent":1900.0,"rentdate":"2022/09/29","encumbered":"No","status":"Rented","slug":"5900-canterbury-dr","owner":"MONGHATE, FARIDEH ","email":null,"section":"No","registered":true}},{"type":"Feature","geometry":{"type":"Point","coordinates":[-118.383162,33.98409]},"properties":{"address":"5650 SUMNER WAY","unit":201,"beds":2,"baths":2.0,"built":1968,"rent":3000.0,"rentdate":"2022/09/28","encumbered":"No","status":"Rented","slug":"5650-sumner-way","owner":"CARMICHAEL, KAREN Y","email":"kycarmichael@gmail.com","section":"No","registered":true}},{"type":"Feature","geometry":{"type":"Point","coordinates":[-118.403111,34.009539]},"properties":{"address":"10839 BARMAN AVE","unit":1,"beds":3,"baths":2.0,"built":1938,"rent":5500.0,"rentdate":"2022/09/27","encumbered":"No","status":"Rented","slug":"10839-barman-ave","owner":"ELOMERI, REEM ","email":null,"section":"No","registered":true}},{"type":"Feature","geometry":{"type":"Point","coordinates":[-118.409843,34.009185]},"properties":{"address":"4060 TILDEN AVE","unit":4058,"beds":3,"baths":2.5,"built":1990,"rent":5195.0,"rentdate":"2022/09/26","encumbered":"No","status":"Rented","slug":"4060-tilden-ave","owner":"TRU, STRUMWASSER SCOTT COTRUSTEE STRUMWASSER RAHBAR ","email":null,"section":"No","registered":true}},{"type":"Feature","geometry":{"type":"Point","coordinates":[-118.40955,34.010664]},"properties":{"address":"4044 HURON AVE","unit":"4044 B","beds":0,"baths":1.0,"built":1931,"rent":0.0,"rentdate":"2022/09/26","encumbered":"No","status":"Vacant","slug":"4044-huron-ave","owner":"SALES MILLER, LISA ","email":"lisasmiller5@protonmail.com","section":"No","registered":true}},{"type":"Feature","geometry":{"type":"Point","coordinates":[-118.40955,34.010664]},"properties":{"address":"4044 HURON AVE","unit":"4044 A","beds":1,"baths":1.0,"built":1931,"rent":0.0,"rentdate":"2022/09/26","encumbered":"No","status":"Vacant","slug":"4044-huron-ave","owner":"SALES MILLER, LISA ","email":"lisasmiller5@protonmail.com","section":"No","registered":true}},{"type":"Feature","geometry":{"type":"Point","coordinates":[-118.40955,34.010664]},"properties":{"address":"4044 HURON AVE","unit":4044,"beds":2,"baths":2.0,"built":1931,"rent":0.0,"rentdate":"2022/09/26","encumbered":"No","status":"Vacant","slug":"4044-huron-ave","owner":"SALES MILLER, LISA ","email":"lisasmiller5@protonmail.com","section":"No","registered":true}},{"type":"Feature","geometry":{"type":"Point","coordinates":[-118.408417,34.011375]},"properties":{"address":"4070 CHARLES AVE","unit":4070,"beds":3,"baths":1.5,"built":1952,"rent":3700.0,"rentdate":"2022/09/23","encumbered":"No","status":"Rented","slug":"4070-charles-ave","owner":"CHENG, JACK C","email":"jcheng4design@yahoo.com","section":"No","registered":true}},{"type":"Feature","geometry":{"type":"Point","coordinates":[-118.396818,34.018781]},"properties":{"address":"4037 MADISON AVE","unit":4039.5,"beds":1,"baths":1.0,"built":1915,"rent":1350.0,"rentdate":"2022/09/22","encumbered":"No","status":"Rented","slug":"4037-madison-ave","owner":"MILLER, LISA S","email":"lisasmiller5@protonmail.com","section":"No","registered":true}},{"type":"Feature","geometry":{"type":"Point","coordinates":[-118.396818,34.018781]},"properties":{"address":"4037 MADISON AVE","unit":4039,"beds":1,"baths":1.0,"built":1915,"rent":1047.0,"rentdate":"2022/09/22","encumbered":"No","status":"Rented","slug":"4037-madison-ave","owner":"MILLER, LISA S","email":"lisasmiller5@protonmail.com","section":"No","registered":true}},{"type":"Feature","geometry":{"type":"Point","coordinates":[-118.396818,34.018781]},"properties":{"address":"4037 MADISON AVE","unit":4037,"beds":2,"baths":1.25,"built":1915,"rent":2664.0,"rentdate":"2022/09/22","encumbered":"No","status":"Rented","slug":"4037-madison-ave","owner":"MILLER, LISA S","email":"lisasmiller5@protonmail.com","section":"No","registered":true}},{"type":"Feature","geometry":{"type":"Point","coordinates":[-118.407478,34.008993]},"properties":{"address":"10960 ALETTA AVE","unit":1,"beds":3,"baths":1.0,"built":1944,"rent":1500.0,"rentdate":"2022/09/22","encumbered":"No","status":"Rented","slug":"10960-aletta-ave","owner":"TRIANA, JOANNE ","email":"jojo68@msn.com","section":"No","registered":true}},{"type":"Feature","geometry":{"type":"Point","coordinates":[-118.382629,34.028299]},"properties":{"address":"3405 CAROLINE AVE","unit":3,"beds":2,"baths":1.0,"built":1923,"rent":3200.0,"rentdate":"2022/09/19","encumbered":"No","status":"Rented","slug":"3405-caroline-ave","owner":"FERDON, JUDSON ","email":"judson.ferdon@GMAIL.COM","section":"No","registered":true}},{"type":"Feature","geometry":{"type":"Point","coordinates":[-118.382629,34.028299]},"properties":{"address":"3405 CAROLINE AVE","unit":1,"beds":2,"baths":2.0,"built":1923,"rent":3095.0,"rentdate":"2022/09/19","encumbered":"No","status":"Rented","slug":"3405-caroline-ave","owner":"FERDON, JUDSON ","email":"judson.ferdon@GMAIL.COM","section":"No","registered":true}},{"type":"Feature","geometry":{"type":"Point","coordinates":[-118.382629,34.028299]},"properties":{"address":"3405 CAROLINE AVE","unit":2,"beds":2,"baths":2.0,"built":1923,"rent":4195.0,"rentdate":"2022/09/19","encumbered":"No","status":"Rented","slug":"3405-caroline-ave","owner":"FERDON, JUDSON ","email":"judson.ferdon@GMAIL.COM","section":"No","registered":true}},{"type":"Feature","geometry":{"type":"Point","coordinates":[-118.396686,34.00818]},"properties":{"address":"4900 OVERLAND AVE","unit":168,"beds":2,"baths":1.5,"built":1973,"rent":1895.0,"rentdate":"2022/09/17","encumbered":"No","status":"Rented","slug":"4900-overland-ave","owner":"GROSS, LEE M","email":null,"section":"No","registered":true}},{"type":"Feature","geometry":{"type":"Point","coordinates":[-118.396402,34.013627]},"properties":{"address":"4273 VINTON AVE","unit":4273,"beds":3,"baths":2.0,"built":1939,"rent":5600.0,"rentdate":"2022/09/17","encumbered":"No","status":"Rented","slug":"4273-vinton-ave","owner":"M, CARRILLO ANTHONY ","email":null,"section":"No","registered":true}},{"type":"Feature","geometry":{"type":"Point","coordinates":[-118.393281,34.013139]},"properties":{"address":"4261 JACKSON AVE","unit":4265,"beds":2,"baths":1.0,"built":1956,"rent":4500.0,"rentdate":"2022/09/17","encumbered":"No","status":"Vacant","slug":"4261-jackson-ave","owner":"ISTWANI, FAWAZ ","email":"4065jackson@gmail.com","section":"No","registered":true}},{"type":"Feature","geometry":{"type":"Point","coordinates":[-118.389278,34.009443]},"properties":{"address":"1201 RAINTREE CIR","unit":1201,"beds":2,"baths":2.0,"built":1972,"rent":2200.0,"rentdate":"2022/09/17","encumbered":"No","status":"Rented","slug":"1201-raintree-cir","owner":"KORNBLUM OSCAR AND SHARRI L TRUST KORNBLUM FAMILY","email":null,"section":"No","registered":true}},{"type":"Feature","geometry":{"type":"Point","coordinates":[-118.393281,34.013139]},"properties":{"address":"4261 JACKSON AVE","unit":4261,"beds":1,"baths":1.0,"built":1956,"rent":3400.0,"rentdate":"2022/09/17","encumbered":"No","status":"Vacant","slug":"4261-jackson-ave","owner":"ISTWANI, FAWAZ ","email":"4065jackson@gmail.com","section":"No","registered":true}},{"type":"Feature","geometry":{"type":"Point","coordinates":[-118.393281,34.013139]},"properties":{"address":"4261 JACKSON AVE","unit":4263,"beds":1,"baths":1.0,"built":1956,"rent":3400.0,"rentdate":"2022/09/17","encumbered":"No","status":"Vacant","slug":"4261-jackson-ave","owner":"ISTWANI, FAWAZ ","email":"4065jackson@gmail.com","section":"No","registered":true}},{"type":"Feature","geometry":{"type":"Point","coordinates":[-118.410914,34.016093]},"properties":{"address":"10878 VENICE BLVD","unit":"G1","beds":1,"baths":1.0,"built":1953,"rent":1990.0,"rentdate":"2022/09/16","encumbered":"No","status":"Rented","slug":"10878-venice-blvd","owner":"LEEDS, BENJAMIN ","email":"management@benleedsproperties.com","section":"No","registered":true}},{"type":"Feature","geometry":{"type":"Point","coordinates":[-118.410914,34.016093]},"properties":{"address":"10878 VENICE BLVD","unit":"G5","beds":1,"baths":1.0,"built":1953,"rent":1695.0,"rentdate":"2022/09/16","encumbered":"No","status":"Rented","slug":"10878-venice-blvd","owner":"LEEDS, BENJAMIN ","email":"management@benleedsproperties.com","section":"No","registered":true}},{"type":"Feature","geometry":{"type":"Point","coordinates":[-118.410914,34.016093]},"properties":{"address":"10878 VENICE BLVD","unit":"G4","beds":1,"baths":1.0,"built":1953,"rent":1775.0,"rentdate":"2022/09/16","encumbered":"No","status":"Rented","slug":"10878-venice-blvd","owner":"LEEDS, BENJAMIN ","email":"management@benleedsproperties.com","section":"No","registered":true}},{"type":"Feature","geometry":{"type":"Point","coordinates":[-118.410914,34.016093]},"properties":{"address":"10878 VENICE BLVD","unit":"G3","beds":1,"baths":1.0,"built":1953,"rent":1625.0,"rentdate":"2022/09/16","encumbered":"No","status":"Rented","slug":"10878-venice-blvd","owner":"LEEDS, BENJAMIN ","email":"management@benleedsproperties.com","section":"No","registered":true}},{"type":"Feature","geometry":{"type":"Point","coordinates":[-118.410914,34.016093]},"properties":{"address":"10878 VENICE BLVD","unit":"V1","beds":1,"baths":1.0,"built":1953,"rent":1625.0,"rentdate":"2022/09/16","encumbered":"No","status":"Rented","slug":"10878-venice-blvd","owner":"LEEDS, BENJAMIN ","email":"management@benleedsproperties.com","section":"No","registered":true}},{"type":"Feature","geometry":{"type":"Point","coordinates":[-118.410914,34.016093]},"properties":{"address":"10878 VENICE BLVD","unit":"V2","beds":1,"baths":1.0,"built":1953,"rent":1975.0,"rentdate":"2022/09/16","encumbered":"No","status":"Vacant","slug":"10878-venice-blvd","owner":"LEEDS, BENJAMIN ","email":"management@benleedsproperties.com","section":"No","registered":true}},{"type":"Feature","geometry":{"type":"Point","coordinates":[-118.410914,34.016093]},"properties":{"address":"10878 VENICE BLVD","unit":"G6","beds":1,"baths":1.0,"built":1953,"rent":1905.5,"rentdate":"2022/09/16","encumbered":"No","status":"Rented","slug":"10878-venice-blvd","owner":"LEEDS, BENJAMIN ","email":"management@benleedsproperties.com","section":"No","registered":true}},{"type":"Feature","geometry":{"type":"Point","coordinates":[-118.410914,34.016093]},"properties":{"address":"10878 VENICE BLVD","unit":"G2","beds":1,"baths":1.0,"built":1953,"rent":1846.0,"rentdate":"2022/09/16","encumbered":"No","status":"Rented","slug":"10878-venice-blvd","owner":"LEEDS, BENJAMIN ","email":"management@benleedsproperties.com","section":"No","registered":true}},{"type":"Feature","geometry":{"type":"Point","coordinates":[-118.393034,34.011524]},"properties":{"address":"4387 JASMINE AVE","unit":"House","beds":3,"baths":2.0,"built":1950,"rent":5185.0,"rentdate":"2022/09/16","encumbered":"No","status":"Rented","slug":"4387-jasmine-ave","owner":"ELKIND JERRY J AND ANDREA B TRUST ELKIND FAMILY TR","email":null,"section":"No","registered":true}},{"type":"Feature","geometry":{"type":"Point","coordinates":[-118.392008,34.005144]},"properties":{"address":"11302 SUMMERTIME LN","unit":11302,"beds":3,"baths":2.0,"built":1950,"rent":2675.0,"rentdate":"2022/09/16","encumbered":"No","status":"Rented","slug":"11302-summertime-ln","owner":"ELKIND, JERRY ","email":"jerry.empire@gmail.com","section":"No","registered":true}},{"type":"Feature","geometry":{"type":"Point","coordinates":[-118.410914,34.016093]},"properties":{"address":"10878 VENICE BLVD","unit":"V3","beds":1,"baths":1.0,"built":1953,"rent":1625.0,"rentdate":"2022/09/16","encumbered":"No","status":"Rented","slug":"10878-venice-blvd","owner":"LEEDS, BENJAMIN ","email":"management@benleedsproperties.com","section":"No","registered":true}},{"type":"Feature","geometry":{"type":"Point","coordinates":[-118.410914,34.016093]},"properties":{"address":"10878 VENICE BLVD","unit":"V4","beds":1,"baths":1.0,"built":1953,"rent":1575.0,"rentdate":"2022/09/16","encumbered":"No","status":"Rented","slug":"10878-venice-blvd","owner":"LEEDS, BENJAMIN ","email":"management@benleedsproperties.com","section":"No","registered":true}},{"type":"Feature","geometry":{"type":"Point","coordinates":[-118.412905,34.011471]},"properties":{"address":"3937 TILDEN AVE","unit":"C","beds":2,"baths":1.0,"built":1944,"rent":2450.0,"rentdate":"2022/09/16","encumbered":"No","status":"Rented","slug":"3937-tilden-ave","owner":"LEWIS, RICHARD ","email":"richard.daniel.lewis@gmail.com","section":"No","registered":true}},{"type":"Feature","geometry":{"type":"Point","coordinates":[-118.412905,34.011471]},"properties":{"address":"3937 TILDEN AVE","unit":"A","beds":2,"baths":1.0,"built":1944,"rent":2300.0,"rentdate":"2022/09/16","encumbered":"No","status":"Rented","slug":"3937-tilden-ave","owner":"LEWIS, RICHARD ","email":"richard.daniel.lewis@gmail.com","section":"No","registered":true}},{"type":"Feature","geometry":{"type":"Point","coordinates":[-118.412905,34.011471]},"properties":{"address":"3937 TILDEN AVE","unit":"B","beds":2,"baths":1.0,"built":1944,"rent":2350.0,"rentdate":"2022/09/16","encumbered":"No","status":"Rented","slug":"3937-tilden-ave","owner":"LEWIS, RICHARD ","email":"richard.daniel.lewis@gmail.com","section":"No","registered":true}},{"type":"Feature","geometry":{"type":"Point","coordinates":[-118.385543,34.025044]},"properties":{"address":"8910 CARSON ST","unit":8910,"beds":2,"baths":1.0,"built":1922,"rent":3700.0,"rentdate":"2022/09/16","encumbered":"No","status":"Rented","slug":"8910-carson-st","owner":"SUCHER III, ROBERT L","email":null,"section":"No","registered":true}},{"type":"Feature","geometry":{"type":"Point","coordinates":[-118.411791,34.015494]},"properties":{"address":"3813 COLLEGE AVE","unit":3815.25,"beds":2,"baths":1.0,"built":1978,"rent":2150.0,"rentdate":"2022/09/15","encumbered":"No","status":"Rented","slug":"3813-college-ave","owner":"RAUL MERLINO, RAUL ","email":"raulmerlino80@hotmail.com","section":"No","registered":true}},{"type":"Feature","geometry":{"type":"Point","coordinates":[-118.411791,34.015494]},"properties":{"address":"3813 COLLEGE AVE","unit":3815.5,"beds":1,"baths":1.0,"built":1978,"rent":2150.0,"rentdate":"2022/09/15","encumbered":"No","status":"Rented","slug":"3813-college-ave","owner":"RAUL MERLINO, RAUL ","email":"raulmerlino80@hotmail.com","section":"No","registered":true}},{"type":"Feature","geometry":{"type":"Point","coordinates":[-118.392633,34.016729]},"properties":{"address":"9950 FARRAGUT DR","unit":1,"beds":2,"baths":2.0,"built":1991,"rent":2000.0,"rentdate":"2022/09/15","encumbered":"No","status":"Rented","slug":"9950-farragut-dr","owner":"WEBSTER, MARY A","email":null,"section":"No","registered":true}},{"type":"Feature","geometry":{"type":"Point","coordinates":[-118.402173,33.996644]},"properties":{"address":"11185 MCDONALD ST","unit":1,"beds":3,"baths":2.0,"built":1952,"rent":6318.0,"rentdate":"2022/09/15","encumbered":"No","status":"Rented","slug":"11185-mcdonald-st","owner":"BERGMAN, NATALIE G","email":"ngbergman@gmail.com","section":"No","registered":true}},{"type":"Feature","geometry":{"type":"Point","coordinates":[-118.390226,34.008752]},"properties":{"address":"5317 RAINTREE CIR","unit":5317,"beds":2,"baths":2.0,"built":1970,"rent":3085.0,"rentdate":"2022/09/15","encumbered":"No","status":"Rented","slug":"5317-raintree-cir","owner":"WOHRLE, MARGARET ","email":"margarets@woodriv.com","section":"No","registered":true}},{"type":"Feature","geometry":{"type":"Point","coordinates":[-118.395713,34.015727]},"properties":{"address":"4143 JACKSON AVE","unit":4147,"beds":0,"baths":1.0,"built":1955,"rent":1700.0,"rentdate":"2022/09/15","encumbered":"No","status":"Rented","slug":"4143-jackson-ave","owner":"DELGADO, ESTER ","email":"esterdel@aol.com","section":"No","registered":true}},{"type":"Feature","geometry":{"type":"Point","coordinates":[-118.411791,34.015494]},"properties":{"address":"3813 COLLEGE AVE","unit":3815,"beds":0,"baths":1.0,"built":1978,"rent":700.0,"rentdate":"2022/09/15","encumbered":"No","status":"Rented","slug":"3813-college-ave","owner":"RAUL MERLINO, RAUL ","email":"raulmerlino80@hotmail.com","section":"No","registered":true}},{"type":"Feature","geometry":{"type":"Point","coordinates":[-118.395713,34.015727]},"properties":{"address":"4143 JACKSON AVE","unit":4143,"beds":2,"baths":2.0,"built":1948,"rent":3400.0,"rentdate":"2022/09/15","encumbered":"No","status":"Rented","slug":"4143-jackson-ave","owner":"DELGADO, ESTER ","email":"esterdel@aol.com","section":"No","registered":true}},{"type":"Feature","geometry":{"type":"Point","coordinates":[-118.411791,34.015494]},"properties":{"address":"3813 COLLEGE AVE","unit":3813,"beds":2,"baths":1.0,"built":1978,"rent":1965.0,"rentdate":"2022/09/15","encumbered":"No","status":"Rented","slug":"3813-college-ave","owner":"RAUL MERLINO, RAUL ","email":"raulmerlino80@hotmail.com","section":"No","registered":true}},{"type":"Feature","geometry":{"type":"Point","coordinates":[-118.395713,34.015727]},"properties":{"address":"4143 JACKSON AVE","unit":4145,"beds":0,"baths":1.0,"built":1955,"rent":1400.0,"rentdate":"2022/09/15","encumbered":"No","status":"Rented","slug":"4143-jackson-ave","owner":"DELGADO, ESTER ","email":"esterdel@aol.com","section":"No","registered":true}},{"type":"Feature","geometry":{"type":"Point","coordinates":[-118.383162,33.98409]},"properties":{"address":"5650 SUMNER WAY","unit":105,"beds":1,"baths":1.0,"built":1900,"rent":1200.0,"rentdate":"2022/09/14","encumbered":"No","status":"Rented","slug":"5650-sumner-way","owner":"PERACHA, MOHAMMED Z","email":"mzperacha@gmail.com","section":"No","registered":true}},{"type":"Feature","geometry":{"type":"Point","coordinates":[-118.386005,33.978806]},"properties":{"address":"6625 GREEN VALLEY CIR","unit":308,"beds":2,"baths":2.0,"built":1970,"rent":2690.0,"rentdate":"2022/09/14","encumbered":"No","status":"Rented","slug":"6625-green-valley-cir","owner":"SAKAKIBARA, SARAH K","email":"sarahsaka@ca.rr.com","section":"No","registered":true}},{"type":"Feature","geometry":{"type":"Point","coordinates":[-118.39916,33.995689]},"properties":{"address":"5349 BLANCO WAY","unit":1,"beds":3,"baths":1.5,"built":1952,"rent":3400.0,"rentdate":"2022/09/14","encumbered":"No","status":"Rented","slug":"5349-blanco-way","owner":"MANDAVILLE, MICHAEL ","email":null,"section":"No","registered":true}},{"type":"Feature","geometry":{"type":"Point","coordinates":[-118.391006,34.006221]},"properties":{"address":"4915 INDIAN WOOD RD","unit":600,"beds":3,"baths":2.0,"built":1973,"rent":3529.0,"rentdate":"2022/09/14","encumbered":"No","status":"Rented","slug":"4915-indian-wood-rd","owner":"MEGGERSON, MURIEL J","email":"meggersonsandy@gmail.com","section":"No","registered":true}},{"type":"Feature","geometry":{"type":"Point","coordinates":[-118.396117,34.01842]},"properties":{"address":"4063 MADISON AVE","unit":4063,"beds":1,"baths":1.0,"built":1928,"rent":2600.0,"rentdate":"2022/09/14","encumbered":"No","status":"Rented","slug":"4063-madison-ave","owner":"AINSLIE, MICHAEL ","email":null,"section":"No","registered":true}},{"type":"Feature","geometry":{"type":"Point","coordinates":[-118.385952,33.979298]},"properties":{"address":"6525 GREEN VALLEY CIR","unit":216,"beds":3,"baths":2.0,"built":1970,"rent":2995.0,"rentdate":"2022/09/13","encumbered":"No","status":"Rented","slug":"6525-green-valley-cir","owner":"KINDLE, JAMES  T","email":"jimkindle@gmail.com","section":"No","registered":true}},{"type":"Feature","geometry":{"type":"Point","coordinates":[-118.394698,34.016622]},"properties":{"address":"4149 LA SALLE AVE","unit":4151,"beds":2,"baths":1.0,"built":1952,"rent":2965.0,"rentdate":"2022/09/13","encumbered":"No","status":"Rented","slug":"4149-la-salle-ave","owner":"SMITH S A TRUST SMITH FAMILY TRUST","email":null,"section":"No","registered":true}},{"type":"Feature","geometry":{"type":"Point","coordinates":[-118.394698,34.016622]},"properties":{"address":"4149 LA SALLE AVE","unit":4149,"beds":1,"baths":1.0,"built":1952,"rent":2130.0,"rentdate":"2022/09/13","encumbered":"No","status":"Rented","slug":"4149-la-salle-ave","owner":"SMITH S A TRUST SMITH FAMILY TRUST","email":null,"section":"No","registered":true}},{"type":"Feature","geometry":{"type":"Point","coordinates":[-118.397814,34.017915]},"properties":{"address":"4031 JACKSON AVE","unit":202,"beds":2,"baths":2.0,"built":1987,"rent":913.0,"rentdate":"2022/09/13","encumbered":"Yes","status":"Rented","slug":"4031-jackson-ave","owner":"HOUSING AUTHORITY, TEVIS BARNES FOR  ","email":"tevis.barnes@culvercity.org","section":"No","registered":true}},{"type":"Feature","geometry":{"type":"Point","coordinates":[-118.397814,34.017915]},"properties":{"address":"4031 JACKSON AVE","unit":205,"beds":2,"baths":2.0,"built":1987,"rent":1100.0,"rentdate":"2022/09/13","encumbered":"Yes","status":"Rented","slug":"4031-jackson-ave","owner":"HOUSING AUTHORITY, TEVIS BARNES FOR  ","email":"tevis.barnes@culvercity.org","section":"No","registered":true}},{"type":"Feature","geometry":{"type":"Point","coordinates":[-118.408938,34.009678]},"properties":{"address":"4104 HURON AVE","unit":4104,"beds":1,"baths":1.0,"built":1947,"rent":0.0,"rentdate":"2022/09/13","encumbered":"No","status":"Vacant","slug":"4104-huron-ave","owner":"LIN, JAMES ","email":null,"section":"No","registered":true}},{"type":"Feature","geometry":{"type":"Point","coordinates":[-118.397814,34.017915]},"properties":{"address":"4031 JACKSON AVE","unit":204,"beds":2,"baths":2.0,"built":1987,"rent":935.0,"rentdate":"2022/09/13","encumbered":"Yes","status":"Rented","slug":"4031-jackson-ave","owner":"HOUSING AUTHORITY, TEVIS BARNES FOR  ","email":"tevis.barnes@culvercity.org","section":"No","registered":true}},{"type":"Feature","geometry":{"type":"Point","coordinates":[-118.397814,34.017915]},"properties":{"address":"4031 JACKSON AVE","unit":206,"beds":2,"baths":2.0,"built":1987,"rent":935.0,"rentdate":"2022/09/13","encumbered":"Yes","status":"Rented","slug":"4031-jackson-ave","owner":"HOUSING AUTHORITY, TEVIS BARNES FOR  ","email":"tevis.barnes@culvercity.org","section":"No","registered":true}},{"type":"Feature","geometry":{"type":"Point","coordinates":[-118.397814,34.017915]},"properties":{"address":"4031 JACKSON AVE","unit":203,"beds":2,"baths":2.0,"built":1987,"rent":935.0,"rentdate":"2022/09/13","encumbered":"Yes","status":"Rented","slug":"4031-jackson-ave","owner":"HOUSING AUTHORITY, TEVIS BARNES FOR  ","email":"tevis.barnes@culvercity.org","section":"No","registered":true}},{"type":"Feature","geometry":{"type":"Point","coordinates":[-118.397814,34.017915]},"properties":{"address":"4031 JACKSON AVE","unit":201,"beds":2,"baths":2.0,"built":1987,"rent":935.0,"rentdate":"2022/09/13","encumbered":"Yes","status":"Rented","slug":"4031-jackson-ave","owner":"HOUSING AUTHORITY, TEVIS BARNES FOR  ","email":"tevis.barnes@culvercity.org","section":"No","registered":true}},{"type":"Feature","geometry":{"type":"Point","coordinates":[-118.397814,34.017915]},"properties":{"address":"4031 JACKSON AVE","unit":103,"beds":2,"baths":2.0,"built":1987,"rent":0.0,"rentdate":"2022/09/13","encumbered":"Yes","status":"Vacant","slug":"4031-jackson-ave","owner":"HOUSING AUTHORITY, TEVIS BARNES FOR  ","email":"tevis.barnes@culvercity.org","section":"No","registered":true}},{"type":"Feature","geometry":{"type":"Point","coordinates":[-118.397814,34.017915]},"properties":{"address":"4031 JACKSON AVE","unit":102,"beds":2,"baths":2.0,"built":1987,"rent":935.0,"rentdate":"2022/09/13","encumbered":"Yes","status":"Rented","slug":"4031-jackson-ave","owner":"HOUSING AUTHORITY, TEVIS BARNES FOR  ","email":"tevis.barnes@culvercity.org","section":"No","registered":true}},{"type":"Feature","geometry":{"type":"Point","coordinates":[-118.397814,34.017915]},"properties":{"address":"4031 JACKSON AVE","unit":101,"beds":2,"baths":2.0,"built":1987,"rent":935.0,"rentdate":"2022/09/13","encumbered":"Yes","status":"Rented","slug":"4031-jackson-ave","owner":"HOUSING AUTHORITY, TEVIS BARNES FOR  ","email":"tevis.barnes@culvercity.org","section":"No","registered":true}},{"type":"Feature","geometry":{"type":"Point","coordinates":[-118.388116,34.00057]},"properties":{"address":"10716 NORTHGATE ST","unit":1,"beds":2,"baths":1.0,"built":1948,"rent":2368.0,"rentdate":"2022/09/13","encumbered":"No","status":"Rented","slug":"10716-northgate-st","owner":"SEBASTIAN, PETER ","email":"sebastianesq@gmail.com","section":"No","registered":true}},{"type":"Feature","geometry":{"type":"Point","coordinates":[-118.394698,34.016622]},"properties":{"address":"4149 LA SALLE AVE","unit":4151.5,"beds":1,"baths":1.0,"built":1952,"rent":1989.0,"rentdate":"2022/09/13","encumbered":"No","status":"Rented","slug":"4149-la-salle-ave","owner":"SMITH S A TRUST SMITH FAMILY TRUST","email":null,"section":"No","registered":true}},{"type":"Feature","geometry":{"type":"Point","coordinates":[-118.396409,34.017504]},"properties":{"address":"4075 LA SALLE AVE","unit":"D","beds":1,"baths":1.0,"built":1941,"rent":2200.0,"rentdate":"2022/09/12","encumbered":"No","status":"Rented","slug":"4075-la-salle-ave","owner":"MCDONALD, SOFIA ","email":null,"section":"No","registered":true}},{"type":"Feature","geometry":{"type":"Point","coordinates":[-118.382082,34.02623]},"properties":{"address":"3530 SCHAEFER ST","unit":"A","beds":3,"baths":2.0,"built":1974,"rent":3362.78,"rentdate":"2022/09/12","encumbered":"No","status":"Rented","slug":"3530-schaefer-st","owner":"FARRAGE, TOM ","email":"tom@farrage.com","section":"No","registered":true}},{"type":"Feature","geometry":{"type":"Point","coordinates":[-118.434279,33.996224]},"properties":{"address":"4041 WADE ST","unit":1,"beds":3,"baths":2.0,"built":1938,"rent":2500.0,"rentdate":"2022/09/12","encumbered":"No","status":"Rented","slug":"4041-wade-st","owner":"MASLON, MARNY ","email":"marny.maslon@gmail.com","section":"No","registered":true}},{"type":"Feature","geometry":{"type":"Point","coordinates":[-118.422737,33.997321]},"properties":{"address":"12022-12024 WASHINGTON BLVD","unit":"12022-2","beds":0,"baths":1.0,"built":1947,"rent":697.0,"rentdate":"2022/09/12","encumbered":"No","status":"Rented","slug":"12022-12024-washington-blvd","owner":"MAVADAT, MICHAEL ","email":"mmmavadat@gmail.com","section":"No","registered":true}},{"type":"Feature","geometry":{"type":"Point","coordinates":[-118.422737,33.997321]},"properties":{"address":"12022-12024 WASHINGTON BLVD","unit":"12022-4","beds":0,"baths":1.0,"built":1947,"rent":1725.0,"rentdate":"2022/09/12","encumbered":"No","status":"Vacant","slug":"12022-12024-washington-blvd","owner":"MAVADAT, MICHAEL ","email":"mmmavadat@gmail.com","section":"No","registered":true}},{"type":"Feature","geometry":{"type":"Point","coordinates":[-118.422737,33.997321]},"properties":{"address":"12022-12024 WASHINGTON BLVD","unit":"12022-1","beds":0,"baths":1.0,"built":1947,"rent":844.0,"rentdate":"2022/09/12","encumbered":"No","status":"Rented","slug":"12022-12024-washington-blvd","owner":"MAVADAT, MICHAEL ","email":"mmmavadat@gmail.com","section":"No","registered":true}},{"type":"Feature","geometry":{"type":"Point","coordinates":[-118.422737,33.997321]},"properties":{"address":"12022-12024 WASHINGTON BLVD","unit":"12024-3","beds":0,"baths":1.0,"built":1947,"rent":799.0,"rentdate":"2022/09/12","encumbered":"No","status":"Rented","slug":"12022-12024-washington-blvd","owner":"MAVADAT, MICHAEL ","email":"mmmavadat@gmail.com","section":"No","registered":true}},{"type":"Feature","geometry":{"type":"Point","coordinates":[-118.382263,34.02613]},"properties":{"address":"3534 SCHAEFER ST","unit":2,"beds":3,"baths":2.0,"built":1978,"rent":3600.0,"rentdate":"2022/09/12","encumbered":"No","status":"Rented","slug":"3534-schaefer-st","owner":"DAVIS, DANIEL ","email":null,"section":"No","registered":true}},{"type":"Feature","geometry":{"type":"Point","coordinates":[-118.39269,34.013453]},"properties":{"address":"4265 REVERE PL","unit":4265,"beds":2,"baths":1.0,"built":1952,"rent":3255.0,"rentdate":"2022/09/12","encumbered":"No","status":"Rented","slug":"4265-revere-pl","owner":"DAVIS DANIEL TRUST D DAVIS TRUST","email":null,"section":"No","registered":true}},{"type":"Feature","geometry":{"type":"Point","coordinates":[-118.392097,34.005286]},"properties":{"address":"11309 SUMMERTIME LN","unit":11309,"beds":1,"baths":1.0,"built":1972,"rent":2150.0,"rentdate":"2022/09/12","encumbered":"No","status":"Rented","slug":"11309-summertime-ln","owner":"DALESSANDRO, GREG ","email":"greg.dalessandro@gmail.com","section":"No","registered":true}},{"type":"Feature","geometry":{"type":"Point","coordinates":[-118.399911,33.998878]},"properties":{"address":"5215 SEPULVEDA BLVD","unit":"16D","beds":3,"baths":2.5,"built":1964,"rent":4000.0,"rentdate":"2022/09/12","encumbered":"No","status":"Rented","slug":"5215-sepulveda-blvd","owner":"FAMIL, MASSINGILL CHARLES L JR COTRUSTEE MASSINGILL ","email":null,"section":"No","registered":true}},{"type":"Feature","geometry":{"type":"Point","coordinates":[-118.386485,33.980515]},"properties":{"address":"6365 GREEN VALLEY CIR","unit":123,"beds":2,"baths":2.0,"built":1973,"rent":3000.0,"rentdate":"2022/09/12","encumbered":"No","status":"Rented","slug":"6365-green-valley-cir","owner":"CHANDNANI, GIRISH S","email":"girishsc@gmail.com","section":"No","registered":true}},{"type":"Feature","geometry":{"type":"Point","coordinates":[-118.422737,33.997321]},"properties":{"address":"12022-12024 WASHINGTON BLVD","unit":"12024-4","beds":0,"baths":1.0,"built":1947,"rent":0.0,"rentdate":"2022/09/12","encumbered":"No","status":"Vacant","slug":"12022-12024-washington-blvd","owner":"MAVADAT, MICHAEL ","email":"mmmavadat@gmail.com","section":"No","registered":true}},{"type":"Feature","geometry":{"type":"Point","coordinates":[-118.434279,33.996224]},"properties":{"address":"4041 WADE ST","unit":3,"beds":3,"baths":3.0,"built":1987,"rent":4725.0,"rentdate":"2022/09/12","encumbered":"No","status":"Rented","slug":"4041-wade-st","owner":"MASLON, MARNY ","email":"marny.maslon@gmail.com","section":"No","registered":true}},{"type":"Feature","geometry":{"type":"Point","coordinates":[-118.396409,34.017504]},"properties":{"address":"4075 LA SALLE AVE","unit":"C","beds":1,"baths":1.0,"built":1939,"rent":2500.0,"rentdate":"2022/09/12","encumbered":"No","status":"Vacant","slug":"4075-la-salle-ave","owner":"MCDONALD, SOFIA ","email":null,"section":"No","registered":true}},{"type":"Feature","geometry":{"type":"Point","coordinates":[-118.382263,34.02613]},"properties":{"address":"3534 SCHAEFER ST","unit":1,"beds":3,"baths":2.0,"built":1978,"rent":3600.0,"rentdate":"2022/09/12","encumbered":"No","status":"Rented","slug":"3534-schaefer-st","owner":"DAVIS, DANIEL ","email":null,"section":"No","registered":true}},{"type":"Feature","geometry":{"type":"Point","coordinates":[-118.396409,34.017504]},"properties":{"address":"4075 LA SALLE AVE","unit":"B","beds":1,"baths":1.0,"built":1939,"rent":2100.0,"rentdate":"2022/09/12","encumbered":"No","status":"Rented","slug":"4075-la-salle-ave","owner":"MCDONALD, SOFIA ","email":null,"section":"No","registered":true}},{"type":"Feature","geometry":{"type":"Point","coordinates":[-118.434279,33.996224]},"properties":{"address":"4041 WADE ST","unit":2,"beds":4,"baths":4.0,"built":1987,"rent":5500.0,"rentdate":"2022/09/12","encumbered":"No","status":"Rented","slug":"4041-wade-st","owner":"MASLON, MARNY ","email":"marny.maslon@gmail.com","section":"No","registered":true}},{"type":"Feature","geometry":{"type":"Point","coordinates":[-118.422737,33.997321]},"properties":{"address":"12022-12024 WASHINGTON BLVD","unit":"12022-3","beds":0,"baths":1.0,"built":1947,"rent":1725.0,"rentdate":"2022/09/12","encumbered":"No","status":"Vacant","slug":"12022-12024-washington-blvd","owner":"MAVADAT, MICHAEL ","email":"mmmavadat@gmail.com","section":"No","registered":true}},{"type":"Feature","geometry":{"type":"Point","coordinates":[-118.434279,33.996224]},"properties":{"address":"4041 WADE ST","unit":4,"beds":3,"baths":3.0,"built":1987,"rent":4850.0,"rentdate":"2022/09/12","encumbered":"No","status":"Rented","slug":"4041-wade-st","owner":"MASLON, MARNY ","email":"marny.maslon@gmail.com","section":"No","registered":true}},{"type":"Feature","geometry":{"type":"Point","coordinates":[-118.434279,33.996224]},"properties":{"address":"4041 WADE ST","unit":5,"beds":3,"baths":3.0,"built":1987,"rent":4950.0,"rentdate":"2022/09/12","encumbered":"No","status":"Rented","slug":"4041-wade-st","owner":"MASLON, MARNY ","email":"marny.maslon@gmail.com","section":"No","registered":true}},{"type":"Feature","geometry":{"type":"Point","coordinates":[-118.394013,34.021229]},"properties":{"address":"4068 LAFAYETTE PL","unit":"A","beds":2,"baths":1.0,"built":1926,"rent":4150.0,"rentdate":"2022/09/12","encumbered":"No","status":"Rented","slug":"4068-lafayette-pl","owner":"ANDERSEN-MILLER, JON B","email":"jon@jonanderseninteriors.com","section":"No","registered":true}},{"type":"Feature","geometry":{"type":"Point","coordinates":[-118.385139,34.025079]},"properties":{"address":"3583 WESLEY ST","unit":1,"beds":2,"baths":1.0,"built":1940,"rent":4200.0,"rentdate":"2022/09/12","encumbered":"No","status":"Rented","slug":"3583-wesley-st","owner":"RUCKMAN, RUBEN M","email":"rubenruckman@gmail.com","section":"No","registered":true}},{"type":"Feature","geometry":{"type":"Point","coordinates":[-118.394013,34.021229]},"properties":{"address":"4068 LAFAYETTE PL","unit":"B","beds":2,"baths":2.0,"built":1926,"rent":3400.0,"rentdate":"2022/09/12","encumbered":"No","status":"Rented","slug":"4068-lafayette-pl","owner":"ANDERSEN-MILLER, JON B","email":"jon@jonanderseninteriors.com","section":"No","registered":true}},{"type":"Feature","geometry":{"type":"Point","coordinates":[-118.394013,34.021229]},"properties":{"address":"4068 LAFAYETTE PL","unit":"C","beds":2,"baths":1.0,"built":1926,"rent":4250.0,"rentdate":"2022/09/12","encumbered":"No","status":"Rented","slug":"4068-lafayette-pl","owner":"ANDERSEN-MILLER, JON B","email":"jon@jonanderseninteriors.com","section":"No","registered":true}},{"type":"Feature","geometry":{"type":"Point","coordinates":[-118.422737,33.997321]},"properties":{"address":"12022-12024 WASHINGTON BLVD","unit":"12024-2","beds":0,"baths":1.0,"built":1947,"rent":1725.0,"rentdate":"2022/09/12","encumbered":"No","status":"Vacant","slug":"12022-12024-washington-blvd","owner":"MAVADAT, MICHAEL ","email":"mmmavadat@gmail.com","section":"No","registered":true}},{"type":"Feature","geometry":{"type":"Point","coordinates":[-118.390022,34.005992]},"properties":{"address":"4925 INDIAN WOOD RD","unit":477,"beds":1,"baths":1.0,"built":1974,"rent":1600.0,"rentdate":"2022/09/12","encumbered":"No","status":"Rented","slug":"4925-indian-wood-rd","owner":"LUPPINO, BEATRIZ R","email":null,"section":"No","registered":true}},{"type":"Feature","geometry":{"type":"Point","coordinates":[-118.422737,33.997321]},"properties":{"address":"12022-12024 WASHINGTON BLVD","unit":"12024-1","beds":0,"baths":1.0,"built":1947,"rent":1725.0,"rentdate":"2022/09/12","encumbered":"No","status":"Vacant","slug":"12022-12024-washington-blvd","owner":"MAVADAT, MICHAEL ","email":"mmmavadat@gmail.com","section":"No","registered":true}},{"type":"Feature","geometry":{"type":"Point","coordinates":[-118.382582,34.025098]},"properties":{"address":"3590 SCHAEFER ST","unit":3590,"beds":1,"baths":1.0,"built":1927,"rent":2250.0,"rentdate":"2022/09/12","encumbered":"No","status":"Rented","slug":"3590-schaefer-st","owner":"FARRAGE, TOM M","email":"tom@farrage.com","section":"No","registered":true}},{"type":"Feature","geometry":{"type":"Point","coordinates":[-118.39255,34.013381]},"properties":{"address":"4269 REVERE PL","unit":4269,"beds":2,"baths":1.0,"built":1952,"rent":1975.0,"rentdate":"2022/09/12","encumbered":"No","status":"Rented","slug":"4269-revere-pl","owner":"DAVIS, PATRICIA F","email":"dianndavis77@gmail.com","section":"No","registered":true}},{"type":"Feature","geometry":{"type":"Point","coordinates":[-118.39269,34.013453]},"properties":{"address":"4265 REVERE PL","unit":4267,"beds":2,"baths":1.0,"built":1952,"rent":3255.0,"rentdate":"2022/09/12","encumbered":"No","status":"Rented","slug":"4265-revere-pl","owner":"DAVIS DANIEL TRUST D DAVIS TRUST","email":null,"section":"No","registered":true}},{"type":"Feature","geometry":{"type":"Point","coordinates":[-118.392503,34.019865]},"properties":{"address":"4145 LAFAYETTE PL","unit":4145,"beds":3,"baths":2.0,"built":1932,"rent":5350.0,"rentdate":"2022/09/12","encumbered":"No","status":"Rented","slug":"4145-lafayette-pl","owner":"MIYAMOTO, FRANCES ","email":null,"section":"No","registered":true}},{"type":"Feature","geometry":{"type":"Point","coordinates":[-118.399911,33.998878]},"properties":{"address":"5215 SEPULVEDA BLVD","unit":"13D","beds":3,"baths":2.25,"built":1972,"rent":2800.0,"rentdate":"2022/09/06","encumbered":"No","status":"Rented","slug":"5215-sepulveda-blvd","owner":"T, GLASSMAN JONATHAN COTRUSTEE GLASSMAN AGUS FAMILY ","email":null,"section":"No","registered":true}},{"type":"Feature","geometry":{"type":"Point","coordinates":[-118.398627,33.995293]},"properties":{"address":"5380 BLANCO WAY","unit":1,"beds":3,"baths":2.0,"built":1953,"rent":4500.0,"rentdate":"2022/09/05","encumbered":"No","status":"Rented","slug":"5380-blanco-way","owner":"ABDULLAH TRUST, EDWARD E","email":"abdullah.edward@gmail.com","section":"No","registered":true}},{"type":"Feature","geometry":{"type":"Point","coordinates":[-118.441719,33.993716]},"properties":{"address":"13203 WASHINGTON BLVD","unit":13205.5,"beds":2,"baths":1.0,"built":1958,"rent":3295.0,"rentdate":"2022/09/04","encumbered":"No","status":"Rented","slug":"13203-washington-blvd","owner":"JONES, KEITH M","email":"keith@tivoliwashingtonpartners.com","section":"No","registered":true}},{"type":"Feature","geometry":{"type":"Point","coordinates":[-118.441719,33.993716]},"properties":{"address":"13203 WASHINGTON BLVD","unit":13203.5,"beds":2,"baths":1.0,"built":1958,"rent":3295.0,"rentdate":"2022/09/04","encumbered":"No","status":"Rented","slug":"13203-washington-blvd","owner":"JONES, KEITH M","email":"keith@tivoliwashingtonpartners.com","section":"No","registered":true}},{"type":"Feature","geometry":{"type":"Point","coordinates":[-118.394078,34.002313]},"properties":{"address":"5304 KINSTON AVE","unit":5304,"beds":2,"baths":1.0,"built":1951,"rent":2695.0,"rentdate":"2022/09/03","encumbered":"No","status":"Rented","slug":"5304-kinston-ave","owner":"BERAL, ARASH ","email":"5304kinston@gmail.com","section":"No","registered":true}},{"type":"Feature","geometry":{"type":"Point","coordinates":[-118.430399,33.999962]},"properties":{"address":"3988 CENTINELA AVE","unit":"D","beds":2,"baths":1.0,"built":1950,"rent":1995.0,"rentdate":"2022/09/02","encumbered":"No","status":"Rented","slug":"3988-centinela-ave","owner":"BERNSTEIN, HELENE ","email":"olivia@empirewestrealty.com","section":"No","registered":true}},{"type":"Feature","geometry":{"type":"Point","coordinates":[-118.411899,34.014449]},"properties":{"address":"3842 PROSPECT AVE","unit":5,"beds":3,"baths":2.0,"built":1967,"rent":3300.0,"rentdate":"2022/09/02","encumbered":"No","status":"Vacant","slug":"3842-prospect-ave","owner":"KENYON WOODSTOCK ASSOCIATION LP","email":"patrick.lassell@rcmi.com","section":"No","registered":true}},{"type":"Feature","geometry":{"type":"Point","coordinates":[-118.385228,33.982025]},"properties":{"address":"6275 CANTERBURY DR","unit":107,"beds":2,"baths":2.0,"built":1976,"rent":1225.0,"rentdate":"2022/09/02","encumbered":"No","status":"Rented","slug":"6275-canterbury-dr","owner":"LOCKER, BETH B","email":"kbushy2016@gmail.com","section":"No","registered":true}},{"type":"Feature","geometry":{"type":"Point","coordinates":[-118.444009,33.99357]},"properties":{"address":"3937 WALGROVE AVE","unit":3937,"beds":2,"baths":1.0,"built":1930,"rent":2250.0,"rentdate":"2022/09/02","encumbered":"No","status":"Rented","slug":"3937-walgrove-ave","owner":"KOVAC TRUST, LUCINDA ","email":"kimkovac@gmail.com","section":"No","registered":true}},{"type":"Feature","geometry":{"type":"Point","coordinates":[-118.411899,34.014449]},"properties":{"address":"3842 PROSPECT AVE","unit":6,"beds":3,"baths":2.0,"built":1967,"rent":3000.0,"rentdate":"2022/09/02","encumbered":"No","status":"Rented","slug":"3842-prospect-ave","owner":"KENYON WOODSTOCK ASSOCIATION LP","email":"patrick.lassell@rcmi.com","section":"No","registered":true}},{"type":"Feature","geometry":{"type":"Point","coordinates":[-118.444009,33.99357]},"properties":{"address":"3937 WALGROVE AVE","unit":3937.5,"beds":1,"baths":1.0,"built":1930,"rent":610.0,"rentdate":"2022/09/02","encumbered":"No","status":"Rented","slug":"3937-walgrove-ave","owner":"KOVAC TRUST, LUCINDA ","email":"kimkovac@gmail.com","section":"No","registered":true}},{"type":"Feature","geometry":{"type":"Point","coordinates":[-118.444009,33.99357]},"properties":{"address":"3937 WALGROVE AVE","unit":"A","beds":0,"baths":1.0,"built":1930,"rent":0.0,"rentdate":"2022/09/02","encumbered":"No","status":"Vacant","slug":"3937-walgrove-ave","owner":"KOVAC TRUST, LUCINDA ","email":"kimkovac@gmail.com","section":"No","registered":true}},{"type":"Feature","geometry":{"type":"Point","coordinates":[-118.444009,33.99357]},"properties":{"address":"3937 WALGROVE AVE","unit":"B","beds":0,"baths":1.0,"built":1930,"rent":1680.0,"rentdate":"2022/09/02","encumbered":"No","status":"Rented","slug":"3937-walgrove-ave","owner":"KOVAC TRUST, LUCINDA ","email":"kimkovac@gmail.com","section":"No","registered":true}},{"type":"Feature","geometry":{"type":"Point","coordinates":[-118.411899,34.014449]},"properties":{"address":"3842 PROSPECT AVE","unit":1,"beds":3,"baths":2.0,"built":1967,"rent":2920.0,"rentdate":"2022/09/02","encumbered":"No","status":"Rented","slug":"3842-prospect-ave","owner":"KENYON WOODSTOCK ASSOCIATION LP","email":"patrick.lassell@rcmi.com","section":"No","registered":true}},{"type":"Feature","geometry":{"type":"Point","coordinates":[-118.411899,34.014449]},"properties":{"address":"3842 PROSPECT AVE","unit":3,"beds":2,"baths":2.0,"built":1967,"rent":2295.0,"rentdate":"2022/09/02","encumbered":"No","status":"Rented","slug":"3842-prospect-ave","owner":"KENYON WOODSTOCK ASSOCIATION LP","email":"patrick.lassell@rcmi.com","section":"No","registered":true}},{"type":"Feature","geometry":{"type":"Point","coordinates":[-118.430399,33.999962]},"properties":{"address":"3988 CENTINELA AVE","unit":"A","beds":2,"baths":1.0,"built":1950,"rent":1995.0,"rentdate":"2022/09/02","encumbered":"No","status":"Rented","slug":"3988-centinela-ave","owner":"BERNSTEIN, HELENE ","email":"olivia@empirewestrealty.com","section":"No","registered":true}},{"type":"Feature","geometry":{"type":"Point","coordinates":[-118.430399,33.999962]},"properties":{"address":"3988 CENTINELA AVE","unit":"B","beds":2,"baths":1.0,"built":1950,"rent":1995.0,"rentdate":"2022/09/02","encumbered":"No","status":"Rented","slug":"3988-centinela-ave","owner":"BERNSTEIN, HELENE ","email":"olivia@empirewestrealty.com","section":"No","registered":true}},{"type":"Feature","geometry":{"type":"Point","coordinates":[-118.411899,34.014449]},"properties":{"address":"3842 PROSPECT AVE","unit":"1a","beds":0,"baths":1.0,"built":1967,"rent":1400.0,"rentdate":"2022/09/02","encumbered":"No","status":"Rented","slug":"3842-prospect-ave","owner":"KENYON WOODSTOCK ASSOCIATION LP","email":"patrick.lassell@rcmi.com","section":"No","registered":true}},{"type":"Feature","geometry":{"type":"Point","coordinates":[-118.411899,34.014449]},"properties":{"address":"3842 PROSPECT AVE","unit":4,"beds":2,"baths":2.0,"built":1967,"rent":2200.0,"rentdate":"2022/09/02","encumbered":"No","status":"Rented","slug":"3842-prospect-ave","owner":"KENYON WOODSTOCK ASSOCIATION LP","email":"patrick.lassell@rcmi.com","section":"No","registered":true}},{"type":"Feature","geometry":{"type":"Point","coordinates":[-118.411899,34.014449]},"properties":{"address":"3842 PROSPECT AVE","unit":2,"beds":3,"baths":2.0,"built":1967,"rent":2699.0,"rentdate":"2022/09/02","encumbered":"No","status":"Rented","slug":"3842-prospect-ave","owner":"KENYON WOODSTOCK ASSOCIATION LP","email":"patrick.lassell@rcmi.com","section":"No","registered":true}},{"type":"Feature","geometry":{"type":"Point","coordinates":[-118.430399,33.999962]},"properties":{"address":"3988 CENTINELA AVE","unit":"C","beds":2,"baths":1.0,"built":1950,"rent":1975.0,"rentdate":"2022/09/02","encumbered":"No","status":"Rented","slug":"3988-centinela-ave","owner":"BERNSTEIN, HELENE ","email":"olivia@empirewestrealty.com","section":"No","registered":true}},{"type":"Feature","geometry":{"type":"Point","coordinates":[-118.401034,34.015088]},"properties":{"address":"10494 CULVER BLVD","unit":"10494- B","beds":2,"baths":1.0,"built":1956,"rent":1835.0,"rentdate":"2022/09/01","encumbered":"No","status":"Rented","slug":"10494-culver-blvd","owner":"JOSEPH, LESCOULIE ","email":null,"section":"No","registered":true}},{"type":"Feature","geometry":{"type":"Point","coordinates":[-118.379426,34.029734]},"properties":{"address":"3348 FAY AVE","unit":"house","beds":2,"baths":1.0,"built":1930,"rent":4000.0,"rentdate":"2022/09/01","encumbered":"No","status":"Vacant","slug":"3348-fay-ave","owner":"CARLSON ROY H AND BARBARA E TRUST ROY AND BARBARA","email":null,"section":"No","registered":true}},{"type":"Feature","geometry":{"type":"Point","coordinates":[-118.430476,34.000096]},"properties":{"address":"3980 CENTINELA AVE","unit":"D","beds":2,"baths":1.0,"built":1950,"rent":1925.0,"rentdate":"2022/09/01","encumbered":"No","status":"Rented","slug":"3980-centinela-ave","owner":"BERNSTEIN, HELENE ","email":"olivia@empirewestrealty.com","section":"No","registered":true}},{"type":"Feature","geometry":{"type":"Point","coordinates":[-118.430476,34.000096]},"properties":{"address":"3980 CENTINELA AVE","unit":"C","beds":2,"baths":1.0,"built":1950,"rent":1975.0,"rentdate":"2022/09/01","encumbered":"No","status":"Rented","slug":"3980-centinela-ave","owner":"BERNSTEIN, HELENE ","email":"olivia@empirewestrealty.com","section":"No","registered":true}},{"type":"Feature","geometry":{"type":"Point","coordinates":[-118.430476,34.000096]},"properties":{"address":"3980 CENTINELA AVE","unit":"B","beds":2,"baths":1.0,"built":1950,"rent":2225.0,"rentdate":"2022/09/01","encumbered":"No","status":"Rented","slug":"3980-centinela-ave","owner":"BERNSTEIN, HELENE ","email":"olivia@empirewestrealty.com","section":"No","registered":true}},{"type":"Feature","geometry":{"type":"Point","coordinates":[-118.430476,34.000096]},"properties":{"address":"3980 CENTINELA AVE","unit":"A","beds":2,"baths":1.0,"built":1950,"rent":2150.0,"rentdate":"2022/09/01","encumbered":"No","status":"Rented","slug":"3980-centinela-ave","owner":"BERNSTEIN, HELENE ","email":"olivia@empirewestrealty.com","section":"No","registered":true}},{"type":"Feature","geometry":{"type":"Point","coordinates":[-118.390437,34.004818]},"properties":{"address":"5201 SUMMERTIME LN","unit":5201,"beds":2,"baths":2.0,"built":1973,"rent":2895.0,"rentdate":"2022/09/01","encumbered":"No","status":"Rented","slug":"5201-summertime-ln","owner":"GADRE, AMOD ","email":"gvcllc14@gmail.com","section":"No","registered":true}},{"type":"Feature","geometry":{"type":"Point","coordinates":[-118.381974,33.985957]},"properties":{"address":"5951 CANTERBURY DR","unit":4,"beds":2,"baths":2.0,"built":1966,"rent":2775.0,"rentdate":"2022/08/31","encumbered":"No","status":"Rented","slug":"5951-canterbury-dr","owner":"DESTOT, GENEVIEVE ","email":null,"section":"No","registered":true}},{"type":"Feature","geometry":{"type":"Point","coordinates":[-118.388435,34.000278]},"properties":{"address":"10742 GALVIN ST","unit":10742,"beds":2,"baths":1.0,"built":1948,"rent":2076.0,"rentdate":"2022/08/31","encumbered":"No","status":"Rented","slug":"10742-galvin-st","owner":"ESTES, KELLI ","email":"k9queen@ix.netcom.com","section":"No","registered":true}},{"type":"Feature","geometry":{"type":"Point","coordinates":[-118.388064,34.021846]},"properties":{"address":"4154 INCE BLVD","unit":4154,"beds":1,"baths":1.0,"built":1928,"rent":1352.0,"rentdate":"2022/08/31","encumbered":"No","status":"Rented","slug":"4154-ince-blvd","owner":"PRICE, VIVIE ","email":null,"section":"No","registered":true}},{"type":"Feature","geometry":{"type":"Point","coordinates":[-118.388064,34.021846]},"properties":{"address":"4154 INCE BLVD","unit":4158,"beds":1,"baths":1.0,"built":1928,"rent":1430.0,"rentdate":"2022/08/31","encumbered":"No","status":"Rented","slug":"4154-ince-blvd","owner":"PRICE, VIVIE ","email":null,"section":"No","registered":true}},{"type":"Feature","geometry":{"type":"Point","coordinates":[-118.388064,34.021846]},"properties":{"address":"4154 INCE BLVD","unit":4162,"beds":1,"baths":1.0,"built":1928,"rent":1833.0,"rentdate":"2022/08/31","encumbered":"No","status":"Rented","slug":"4154-ince-blvd","owner":"PRICE, VIVIE ","email":null,"section":"No","registered":true}},{"type":"Feature","geometry":{"type":"Point","coordinates":[-118.389369,34.000079]},"properties":{"address":"10762 GALVIN ST","unit":10762,"beds":2,"baths":1.0,"built":1948,"rent":2302.65,"rentdate":"2022/08/31","encumbered":"No","status":"Rented","slug":"10762-galvin-st","owner":"FAJARDO GREGORIO AND MANETTE TRUST G G AND M R FAJ","email":null,"section":"No","registered":true}},{"type":"Feature","geometry":{"type":"Point","coordinates":[-118.388585,34.000337]},"properties":{"address":"10740 GALVIN ST","unit":10740,"beds":2,"baths":1.0,"built":1948,"rent":3995.0,"rentdate":"2022/08/31","encumbered":"No","status":"Rented","slug":"10740-galvin-st","owner":"ESTES, KELLI ","email":"k9queen@ix.netcom.com","section":"No","registered":true}},{"type":"Feature","geometry":{"type":"Point","coordinates":[-118.392928,34.016339]},"properties":{"address":"4204 LA SALLE AVE","unit":2,"beds":3,"baths":2.0,"built":1949,"rent":3793.0,"rentdate":"2022/08/31","encumbered":"No","status":"Rented","slug":"4204-la-salle-ave","owner":"ORIBA, DAVID ","email":"dsoriba@yahoo.com","section":"No","registered":true}},{"type":"Feature","geometry":{"type":"Point","coordinates":[-118.392928,34.016339]},"properties":{"address":"4204 LA SALLE AVE","unit":1,"beds":2,"baths":1.0,"built":1949,"rent":2316.0,"rentdate":"2022/08/31","encumbered":"No","status":"Rented","slug":"4204-la-salle-ave","owner":"ORIBA, DAVID ","email":"dsoriba@yahoo.com","section":"No","registered":true}},{"type":"Feature","geometry":{"type":"Point","coordinates":[-118.388064,34.021846]},"properties":{"address":"4154 INCE BLVD","unit":4166,"beds":1,"baths":1.0,"built":1928,"rent":1950.0,"rentdate":"2022/08/31","encumbered":"No","status":"Rented","slug":"4154-ince-blvd","owner":"PRICE, VIVIE ","email":null,"section":"No","registered":true}},{"type":"Feature","geometry":{"type":"Point","coordinates":[-118.388064,34.021846]},"properties":{"address":"4154 INCE BLVD","unit":4168,"beds":1,"baths":1.0,"built":1928,"rent":1487.0,"rentdate":"2022/08/31","encumbered":"No","status":"Rented","slug":"4154-ince-blvd","owner":"PRICE, VIVIE ","email":null,"section":"No","registered":true}},{"type":"Feature","geometry":{"type":"Point","coordinates":[-118.383225,33.984788]},"properties":{"address":"5651 SUMNER WAY","unit":216,"beds":2,"baths":2.0,"built":1968,"rent":0.0,"rentdate":"2022/08/31","encumbered":"No","status":"Vacant","slug":"5651-sumner-way","owner":"BETTY, LEE ","email":"Bettybrennand@gmail.com","section":"No","registered":true}},{"type":"Feature","geometry":{"type":"Point","coordinates":[-118.413389,34.012731]},"properties":{"address":"3872 TILDEN AVE","unit":3874,"beds":2,"baths":1.0,"built":1949,"rent":2125.0,"rentdate":"2022/08/30","encumbered":"No","status":"Rented","slug":"3872-tilden-ave","owner":"BRAUER, KRISTOFER  H","email":null,"section":"No","registered":true}},{"type":"Feature","geometry":{"type":"Point","coordinates":[-118.413389,34.012731]},"properties":{"address":"3872 TILDEN AVE","unit":3872,"beds":2,"baths":1.0,"built":1949,"rent":2800.0,"rentdate":"2022/08/30","encumbered":"No","status":"Rented","slug":"3872-tilden-ave","owner":"BRAUER, KRISTOFER  H","email":null,"section":"No","registered":true}},{"type":"Feature","geometry":{"type":"Point","coordinates":[-118.392055,33.99967]},"properties":{"address":"5588 KINSTON AVE","unit":5594,"beds":2,"baths":1.0,"built":1951,"rent":2200.0,"rentdate":"2022/08/30","encumbered":"No","status":"Rented","slug":"5588-kinston-ave","owner":"HIGA, KENNETH K","email":"hellih4rent@gmail.com","section":"No","registered":true}},{"type":"Feature","geometry":{"type":"Point","coordinates":[-118.390401,34.009101]},"properties":{"address":"5116 RAINTREE CIR","unit":5116,"beds":1,"baths":1.0,"built":1971,"rent":2000.0,"rentdate":"2022/08/30","encumbered":"No","status":"Rented","slug":"5116-raintree-cir","owner":"MULLAHEY, MONICA ","email":null,"section":"No","registered":true}},{"type":"Feature","geometry":{"type":"Point","coordinates":[-118.391566,34.003415]},"properties":{"address":"4904 MAYTIME LN","unit":4904,"beds":2,"baths":2.0,"built":1973,"rent":0.0,"rentdate":"2022/08/30","encumbered":"No","status":"Rented","slug":"4904-maytime-ln","owner":"PARRY, ROBERT ","email":"parrys4re@earthlink.net","section":"No","registered":true}},{"type":"Feature","geometry":{"type":"Point","coordinates":[-118.392055,33.99967]},"properties":{"address":"5588 KINSTON AVE","unit":5592,"beds":2,"baths":1.0,"built":1951,"rent":2018.0,"rentdate":"2022/08/30","encumbered":"No","status":"Rented","slug":"5588-kinston-ave","owner":"HIGA, KENNETH K","email":"hellih4rent@gmail.com","section":"No","registered":true}},{"type":"Feature","geometry":{"type":"Point","coordinates":[-118.395814,34.010795]},"properties":{"address":"4351 LE BOURGET AVE","unit":1,"beds":4,"baths":2.5,"built":1952,"rent":5250.0,"rentdate":"2022/08/30","encumbered":"No","status":"Rented","slug":"4351-le-bourget-ave","owner":"MEJIA JOSE U AND ELIZABETH H TRUST MEJIA FAMILY TR","email":null,"section":"No","registered":true}},{"type":"Feature","geometry":{"type":"Point","coordinates":[-118.409209,34.008701]},"properties":{"address":"4120 TILDEN AVE","unit":2,"beds":5,"baths":4.0,"built":1942,"rent":3900.0,"rentdate":"2022/08/30","encumbered":"No","status":"Rented","slug":"4120-tilden-ave","owner":"IBRAHIM, BILAL ","email":null,"section":"No","registered":true}},{"type":"Feature","geometry":{"type":"Point","coordinates":[-118.392055,33.99967]},"properties":{"address":"5588 KINSTON AVE","unit":5590,"beds":2,"baths":1.0,"built":1951,"rent":2350.0,"rentdate":"2022/08/30","encumbered":"No","status":"Rented","slug":"5588-kinston-ave","owner":"HIGA, KENNETH K","email":"hellih4rent@gmail.com","section":"No","registered":true}},{"type":"Feature","geometry":{"type":"Point","coordinates":[-118.382407,34.0259]},"properties":{"address":"3544 SCHAEFER ST.","unit":"3544- 1","beds":2,"baths":1.0,"built":1962,"rent":3395.0,"rentdate":"2022/08/30","encumbered":"No","status":"Rented","slug":"3544-schaefer-st","owner":"KENNEDY, AUTUMM ","email":"sqaengineering@gmail.com","section":"No","registered":true}},{"type":"Feature","geometry":{"type":"Point","coordinates":[-118.392055,33.99967]},"properties":{"address":"5588 KINSTON AVE","unit":5588,"beds":2,"baths":1.0,"built":1951,"rent":2550.0,"rentdate":"2022/08/30","encumbered":"No","status":"Rented","slug":"5588-kinston-ave","owner":"HIGA, KENNETH K","email":"hellih4rent@gmail.com","section":"No","registered":true}},{"type":"Feature","geometry":{"type":"Point","coordinates":[-118.392368,33.999666]},"properties":{"address":"5582 KINSTON AVE","unit":5578,"beds":2,"baths":1.0,"built":1951,"rent":2090.0,"rentdate":"2022/08/29","encumbered":"No","status":"Rented","slug":"5582-kinston-ave","owner":"TAYLOR, VERNON ","email":null,"section":"No","registered":true}},{"type":"Feature","geometry":{"type":"Point","coordinates":[-118.392368,33.999666]},"properties":{"address":"5582 KINSTON AVE","unit":5580,"beds":2,"baths":1.0,"built":1951,"rent":1995.0,"rentdate":"2022/08/29","encumbered":"No","status":"Rented","slug":"5582-kinston-ave","owner":"TAYLOR, VERNON ","email":null,"section":"No","registered":true}},{"type":"Feature","geometry":{"type":"Point","coordinates":[-118.394126,34.001977]},"properties":{"address":"5314 5320 KINSTON AVE","unit":5314,"beds":2,"baths":1.0,"built":1951,"rent":1750.0,"rentdate":"2022/08/29","encumbered":"No","status":"Rented","slug":"5314-5320-kinston-ave","owner":"FLORES, MICHAEL ","email":"jand3ms@aol.com","section":"No","registered":true}},{"type":"Feature","geometry":{"type":"Point","coordinates":[-118.403826,34.009162]},"properties":{"address":"4304 ELENDA ST","unit":"A","beds":1,"baths":1.0,"built":2021,"rent":2400.0,"rentdate":"2022/08/29","encumbered":"No","status":"Vacant","slug":"4304-elenda-st","owner":"SANDERS, MELISSA J","email":"melissajillsanders@gmail.com","section":"No","registered":true}},{"type":"Feature","geometry":{"type":"Point","coordinates":[-118.398844,33.990506]},"properties":{"address":"11505 CULVER PARK DR","unit":1,"beds":3,"baths":2.0,"built":1951,"rent":5000.0,"rentdate":"2022/08/29","encumbered":"No","status":"Rented","slug":"11505-culver-park-dr","owner":"PERLMAN, JEREMY S","email":"perlmanstate@gmail.com","section":"No","registered":true}},{"type":"Feature","geometry":{"type":"Point","coordinates":[-118.394126,34.001977]},"properties":{"address":"5314 5320 KINSTON AVE","unit":5318,"beds":2,"baths":2.0,"built":0,"rent":1650.0,"rentdate":"2022/08/29","encumbered":"No","status":"Rented","slug":"5314-5320-kinston-ave","owner":"FLORES, MICHAEL ","email":"jand3ms@aol.com","section":"No","registered":true}},{"type":"Feature","geometry":{"type":"Point","coordinates":[-118.394126,34.001977]},"properties":{"address":"5314 5320 KINSTON AVE","unit":5320,"beds":2,"baths":1.0,"built":0,"rent":1750.0,"rentdate":"2022/08/29","encumbered":"No","status":"Rented","slug":"5314-5320-kinston-ave","owner":"FLORES, MICHAEL ","email":"jand3ms@aol.com","section":"No","registered":true}},{"type":"Feature","geometry":{"type":"Point","coordinates":[-118.392368,33.999666]},"properties":{"address":"5582 KINSTON AVE","unit":5576,"beds":2,"baths":1.0,"built":1951,"rent":2000.0,"rentdate":"2022/08/29","encumbered":"No","status":"Rented","slug":"5582-kinston-ave","owner":"TAYLOR, VERNON ","email":null,"section":"No","registered":true}},{"type":"Feature","geometry":{"type":"Point","coordinates":[-118.394126,34.001977]},"properties":{"address":"5314 5320 KINSTON AVE","unit":5316,"beds":2,"baths":1.0,"built":1951,"rent":1750.0,"rentdate":"2022/08/29","encumbered":"No","status":"Rented","slug":"5314-5320-kinston-ave","owner":"FLORES, MICHAEL ","email":"jand3ms@aol.com","section":"No","registered":true}},{"type":"Feature","geometry":{"type":"Point","coordinates":[-118.417726,34.006188]},"properties":{"address":"11368 WASHINGTON PL","unit":"B","beds":2,"baths":1.0,"built":1950,"rent":1600.0,"rentdate":"2022/08/29","encumbered":"No","status":"Rented","slug":"11368-washington-pl","owner":"MANKARIOUS, PETER ","email":null,"section":"No","registered":true}},{"type":"Feature","geometry":{"type":"Point","coordinates":[-118.396349,34.004408]},"properties":{"address":"5127 FAIRBANKS WAY","unit":1,"beds":5,"baths":2.0,"built":1938,"rent":5100.0,"rentdate":"2022/08/29","encumbered":"No","status":"Rented","slug":"5127-fairbanks-way","owner":"VIVEK TAUH AND NEELU TAUH TRUST","email":"vivek011@gmail.com","section":"No","registered":true}},{"type":"Feature","geometry":{"type":"Point","coordinates":[-118.394847,34.013394]},